Fuel Type Code,Station Name,Street Address,Intersection Directions,City,State,ZIP,Plus4,Station Phone,Status Code,Expected Date,Groups With Access Code,Access Days Time,Cards Accepted,BD Blends,NG Fill Type Code,NG PSI,EV Level1 EVSE Num,EV Level2 EVSE Num,EV DC Fast Count,EV Other Info,EV Network,EV Network Web,Geocode Status,Latitude,Longitude,Date Last Confirmed,ID,Updated At,Owner Type Code,Federal Agency ID,Federal Agency Name,Open Date,Hydrogen Status Link,NG Vehicle Class,LPG Primary,E85 Blender Pump,EV Connector Types,Country,Intersection Directions (French),Access Days Time (French),BD Blends (French),Groups With Access Code (French),Hydrogen Is Retail,Access Code,Access Detail Code,Federal Agency Code
ELEC,City of Sacramento - Capitol Parking Garage,1015 L St,"At 10th and L, 2nd Level",Sacramento,CA,95814,,888-758-4389  916-264-5011,E,,Public,Garage business hours; pay lot,,,,,2,,,3 SP Inductive,,,GPS,38.5783802,-121.4926,2018-09-10,1498,2018-09-10 19:53:21 UTC,LG,,,2018-08-20,,,,,NEMA520,US,,,,Public,,public,,
ELEC,Los Angeles Convention Center,1201 S Figueroa St,West hall,Los Angeles,CA,90015,,213-741-1151,E,,Public,24 hours daily; pay lot,,,,,1,2,,,,,200-9,34.04057,-118.268762,2018-05-03,1523,2018-05-03 14:44:18 UTC,P,,,1995-08-30,,,,,J1772 NEMA515,US,,,,Public,,public,,
ELEC,City of Santa Monica - Pier,200 Santa Monica Pier,,Santa Monica,CA,90405,,310-458-8516,E,,Public,24 hours daily; pay lot,,,,,1,3,,,,,200-9,34.010021,-118.49583,2018-05-03,7230,2018-05-03 14:44:18 UTC,LG,,,1998-06-30,,,,,J1772 NEMA520,US,,,,Public,,public,,
ELEC,Universal City Hilton,333 Universal Terrace Pkwy,,Universal City,CA,91608,,818-506-2500,E,,Public,24 hours daily; pay lot; see valet for access,,,,,1,,,,,,200-8,34.138717,-118.35904,2018-05-03,7242,2018-05-03 14:44:18 UTC,P,,,1998-05-30,,,,,NEMA520,US,,,,Public,,public,,
ELEC,Getty Center,1200 Getty Center Dr,Eight Level 2 and four Level 1 chargers located in P2 of main parking area. Eight Level 2 and eight Level 1 chargers located at Top of Hill Parking.,Los Angeles,CA,90049,,310-440-7300,E,,Public,Garage business hours; pay lot,,,,,12,16,,,,,200-9,34.077588,-118.474585,2018-05-03,21419,2018-11-09 19:30:59 UTC,P,,,2013-07-01,,,,,J1772 NEMA520,US,,,,Public,,public,,
ELEC,Los Angeles County - Arboretum,301 N Baldwin Ave,Located in parking lot directly across from Harvard Dr,Arcadia,CA,91007,,323-267-2023,E,,Public,24 hours daily,,,,,1,1,,,,,200-8,34.142727,-118.051275,2018-09-10,21450,2018-09-10 19:53:21 UTC,P,,,2014-06-01,,,,,J1772,US,,,,Public,,public,,
ELEC,CITY OF SB EV2,1115 Anacapa St,"STATION 3
STATION 4",Santa Barbara,CA,93101,,888-758-4389,E,,Public,24 hours daily,,,,,2,2,,,ChargePoint Network,http://www.chargepoint.com/,200-8,34.423495,-119.70228,2018-11-19,21557,2018-11-19 10:08:37 UTC,,,,,,,,,J1772 NEMA520,US,,,,Public,,public,,
ELEC,Home Depot,2745 Teller Rd,In front of garden center,Newbury Park,CA,91320,,805-375-6680,E,,Public,24 hours daily,,,,,4,2,,,,,200-8,34.18997,-118.934393,2018-05-03,21565,2018-05-03 14:44:18 UTC,P,,,2002-05-15,,,,,J1772 NEMA515,US,,,,Public,,public,,
ELEC,University of California - Davis Extension,1441 Research Park Dr,,Davis,CA,95616,,530-752-8277,E,,Public,24 hours daily,,,,,1,3,,,,,200-9,38.539118,-121.732015,2018-05-03,21673,2018-05-03 14:44:18 UTC,SG,,,2004-06-01,,,,,J1772 NEMA520,US,,,,Public,,public,,
ELEC,San Luis Obispo County Air Pollution Control District,3433 Roberto Ct,,San Luis Obispo,CA,93401,,805-781-5912,E,,Public,8am-5pm M-F; see front desk for code,,,,,1,1,,,,,GPS,35.25939,-120.64492,2018-09-10,21713,2018-09-10 19:53:21 UTC,LG,,,2002-07-15,,,,,J1772 NEMA520,US,,,,Public,,public,,
ELEC,City of Sacramento - City Hall Public Parking Garage,10th St & I St,"Lot I, Levels 2 and 8, Waterfall Building.",Sacramento,CA,95814,,916-264-5011,E,,Public,24 hours daily; pay lot,,,,,4,21,,2 SP Inductive,,,GPS,38.58098,-121.493,2018-09-10,25493,2018-09-10 19:53:21 UTC,LG,,,2004-05-30,,,,,J1772 NEMA1450,US,,,,Public,,public,,
ELEC,Sutter Galleria Mall - University of California - Davis Extension,2901 K St,Located on the 2nd floor,Sacramento,CA,95816,,916-327-7072,E,,Public,24 hours daily; pay lot; visitor and student use only,,,,,1,2,,,,,200-9,38.57277,-121.467902,2018-05-03,25494,2018-05-03 14:44:18 UTC,P,,,2004-05-30,,,,,J1772 NEMA520,US,,,,Public,,public,,
ELEC,Pitt School Plaza,1440 Ary Ln,,Dixon,CA,95620,,707-449-5424,E,,Public,24 hours daily,,,,,1,,,1 SP Inductive  1 Tesla Conductive,,,200-9,38.457369,-121.842567,2018-09-10,25520,2018-09-10 19:53:21 UTC,LG,,,2004-06-15,,,,,NEMA520,US,,,,Public,,public,,
ELEC,Burlington International Airport,1200 Airport Dr,1st Floor Parking Garage,South Burlington,VT,05403,,802-863-2874,E,,Public,24 hours daily; pay lot,,,,,2,,,,,,GPS,44.469281,-73.154972,2017-08-02,27036,2018-02-06 21:00:03 UTC,LG,,,2014-04-01,,,,,NEMA520,US,,,,Public,,public,,
ELEC,Rio Vista City Hall,1 Main St,,Rio Vista,CA,94571,,707-374-6451,E,,Public,24 hours daily,,,,,1,1,,1 SP Inductive,,,GPS,38.15485,-121.69,2018-09-10,27302,2018-09-10 19:53:21 UTC,LG,,,2006-08-15,,,,,J1772 NEMA515,US,,,,Public,,public,,
ELEC,City of Lacey - City Hall Parking,420 College St,"At 3rd Ave SE, next to police station",Lacey,WA,98503,,360-491-3214,E,,Public,24 hours daily,,,,,4,,,,,,200-9,47.044011,-122.822404,2018-11-08,33351,2018-11-08 16:06:54 UTC,LG,,,2018-01-15,,,,,NEMA520,US,,,,Public,,public,,
ELEC,Lacey Timberland Library,500 College St SE,"At 6th Ave SE, located in front of building",Lacey,WA,98503,,360-491-3860,E,,Public,24 hours daily,,,,,1,,,,,,200-9,47.043857,-122.822498,2018-11-08,33352,2018-11-08 16:06:54 UTC,LG,,,2008-04-15,,,,,NEMA520,US,,,,Public,,public,,
ELEC,Oregon Museum of Science and Industry (OMSI) - South Parking Lot,1945 SE Water Ave,Under solar canopy in east parking lot,Portland,OR,97214,,800-955-6674,E,,Public,24 hours daily,,,,,2,2,,,,,GPS,45.508396,-122.664667,2018-11-08,33378,2018-11-08 16:06:54 UTC,P,,,2008-10-15,,,,,J1772 NEMA515,US,,,,Public,,public,,
ELEC,Portland General Electric,4245 Kale St NE,"At Highway 99 (Portland Rd), in PGE parking lot",Salem,OR,97305,,503-399-7717,E,,Public,24 hours daily,,,,,1,1,,,,,200-8,44.99715,-122.97447,2017-08-02,33465,2018-03-16 17:53:29 UTC,T,,,2008-10-15,,,,,J1772 NEMA520,US,,,,Public,,public,,
ELEC,Paso Robles RV Ranch & Campground,398 Exline Rd,,Paso Robles,CA,93446,,805-237-8685,E,,Public,8:30am-5pm daily; pay lot,,,,,1,,,1 Conductive,,,GPS,35.682304,-120.702174,2018-05-03,33541,2018-05-03 14:44:18 UTC,P,,,2012-06-30,,,,,NEMA520,US,,,,Public,,public,,
ELEC,Nut Tree Village,1651 E Monte Vista Ave,,Vacaville,CA,95688,,707-449-5424,E,,Public,24 hours daily,,,,,1,1,,1 SP Inductive,,,200-9,38.368755,-121.961192,2018-09-10,33545,2018-09-10 19:53:21 UTC,P,,,2008-12-15,,,,,J1772 NEMA515,US,,,,Public,,public,,
ELEC,University of California - Davis,6 Howard Way,Quad Structure; Between Russell Blvd & North Quad,Davis,CA,95616,,530-752-8277,E,,Public,24 hours daily; pay lot; permit required 7am-10pm M-F,,,,,2,4,,,,,200-8,38.543997,-121.75014,2018-05-03,33557,2018-05-03 14:44:18 UTC,P,,,2008-12-01,,,,,J1772 NEMA520,US,,,,Public,,public,,
ELEC,Seattle-Tacoma International Airport - General Parking,17801 Pacific Hwy S,"5th floor parking garage; rows D, G, and I",Seattle,WA,98188,,206-433-5308,E,,Public,24 hours daily; pay lot,,,,,36,,,,,,200-8,47.443377,-122.296229,2018-06-05,33717,2018-06-05 19:29:00 UTC,P,,,2010-03-01,,,,,NEMA520,US,,,,Public,,public,,
ELEC,Travis Park United Methodist Church,230 E Travis St,At the church parking lot on Travis Street,San Antonio,TX,78205,,210-226-8341,E,,Public,24 hours daily,,,,,2,,,,,,200-9,29.427254,-98.490136,2018-11-08,34829,2018-11-08 16:06:54 UTC,P,,,2009-07-15,,,,,NEMA520,US,,,,Public,,public,,
ELEC,City of Keizer,930 Chemawa Rd NE,,Salem,OR,97303,,503-390-3700,E,,Public,24 hours daily,,,,,4,,,,,,200-9,44.99574,-123.019758,2017-03-03,34849,2018-03-06 01:11:46 UTC,SG,,,2009-10-15,,,,,NEMA520,US,,,,Public,,public,,
ELEC,Shorenstein Realty,5500 SW Meadows Rd,Located at Kruse Woods Drive,Lake Oswego,OR,97035,,503-619-3200,E,,Public,24 hours daily,,,,,4,,,,,,200-9,45.416826,-122.734498,2017-07-06,34857,2018-03-06 01:04:44 UTC,P,,,2008-10-01,,,,,NEMA520,US,,,,Public,,public,,
ELEC,WALNUT CREEK,1350 Locust St,WC 003,Walnut Creek,CA,94596,,888-758-4389,E,,Public,24 hours daily,,,,,1,1,,,ChargePoint Network,http://www.chargepoint.com/,GPS,37.898604,-122.0613635,2018-11-19,35156,2018-11-19 10:08:37 UTC,,,,,,,,,J1772 NEMA520,US,,,,Public,,public,,
ELEC,SOLAR SOURCE,10840 Endeavour Way,SS UNIT 01; Solar Source: The Solar Experts,Seminole,FL,33777,,888-758-4389,E,,Public,24 hours daily,,,,,1,,,,ChargePoint Network,http://www.chargepoint.com/,GPS,27.8699551,-82.7352295,2018-11-19,35159,2018-11-19 10:08:37 UTC,,,,,,,,,NEMA520,US,,,,Public,,public,,
ELEC,METRO NASHVILLE,800 2nd Ave S,"FULTON GARAGE 1; First floor of garage SW corner Employee use only
FULTON GARAGE 2; First floor of garage SW corner Employee use only
FULTON GARAGE 3;  First floor of garage NW corner
FULTON GARAGE 4; First floor of garage NW corner
FULTON GARAGE 6; Located outside of Fulton Garage",Nashville,TN,37210,,888-758-4389,E,,Public,24 hours daily,,,,,2,8,,,ChargePoint Network,http://www.chargepoint.com/,200-8,36.153331,-86.769396,2018-11-19,35165,2018-11-19 10:08:37 UTC,,,,,,,,,J1772 NEMA520,US,,,,Public,,public,,
ELEC,I-64 West Rest Stop,I-64 W and VA-155,I-64 between milepost 214 and 213 in Virginia,New Kent,VA,23140,,804-966-8617,E,,Public,24 hours daily,,,,,4,,,,,,GPS,37.498704,-77.04348,2018-03-08,35168,2018-03-08 17:27:07 UTC,SG,,,2009-09-22,,,,,NEMA520,US,,,,Public,,public,,
ELEC,LINCOLN CITY,1226 SW 50th St,"TAFT ARCH LOT 1
TAFT DUAL 1",Lincoln City,OR,97367,,888-758-4389,E,,Public,24 hours daily,,,,,1,3,,,ChargePoint Network,http://www.chargepoint.com/,200-9,44.928434,-124.015938,2018-11-19,35258,2018-11-19 10:08:37 UTC,,,,,,,,,J1772 NEMA520,US,,,,Public,,public,,
ELEC,IRON EAGLE TECH,4038 Main St,"WINDMILL 1
WINDMILL 2",Elk Horn,IA,51531,,888-758-4389,E,,Public,24 hours daily,,,,,2,2,,,ChargePoint Network,http://www.chargepoint.com/,200-9,41.589399,-95.060588,2018-11-19,35268,2018-11-19 10:08:37 UTC,,,,,,,,,J1772 NEMA520,US,,,,Public,,public,,
ELEC,OUC,100 W Anderson St,"DCQC RELIABLE 1; Visitor Lot of OUC Reliable Plaza. Left of Entrance 
OUC RELIABLE 02; Visitor Parking Lot. Right of Entrance in planter
RELIABLE 01; OUC Visitor Parking Lot",Orlando,FL,32801,,888-758-4389,E,,Public,24 hours daily,,,,,1,2,1,,ChargePoint Network,http://www.chargepoint.com/,200-9,28.536513,-81.379014,2018-11-19,35284,2018-11-19 10:08:37 UTC,,,,,,,,,CHADEMO J1772 NEMA520,US,,,,Public,,public,,
ELEC,Haggen Food & Pharmacy,1313 Cooper Point Rd SW,In front of the building on the left hand side,Olympia,WA,98502,,360-754-1428,E,,Public,24 hours daily,,,,,2,,,,,,200-8,47.035421,-122.938962,2018-11-08,35337,2018-11-08 16:06:54 UTC,P,,,2009-08-15,,,,,NEMA520,US,,,,Public,,public,,
ELEC,DTE ENERGY,1 Energy Plaza,"HQ 01; -
HQ 03; -",Detroit,MI,48226,,888-758-4389,E,,Public,24 hours daily,,,,,2,2,,,ChargePoint Network,http://www.chargepoint.com/,200-9,42.333471,-83.057273,2018-11-19,35477,2018-11-19 10:08:37 UTC,,,,,,,,,J1772 NEMA520,US,,,,Public,,public,,
ELEC,LINCOLN CITY,1601 NE 15th St,NE15TH PARKING1,Lincoln City,OR,97367,,888-758-4389,E,,Public,24 hours daily,,,,,1,1,,,ChargePoint Network,http://www.chargepoint.com/,GPS,44.9760399,-124.0114594,2018-11-19,35481,2018-11-19 10:08:37 UTC,,,,,,,,,J1772 NEMA520,US,,,,Public,,public,,
ELEC,CITY OF HOUSTON,8000 N Stadium Dr,"N STADIUM 002; Located at level 4 of the parking garage
N STADIUM 003; Located at level 4 of the parking garage
N STADIUM 004; Located at level 4 of the parking garage
N STADIUM 005; Located at level 4 of the parking garage
N STADIUM 006; Located at level 4 of the parking garage",Houston,TX,77054,,888-758-4389,E,,Public,24 hours daily,,,,,5,,,,ChargePoint Network,http://www.chargepoint.com/,200-9,29.693037,-95.408367,2018-11-19,35485,2018-11-19 10:08:37 UTC,,,,,,,,,NEMA520,US,,,,Public,,public,,
ELEC,ELEMENT HOTELS,3550 Interstate 635,DFW AIRPORT N; Frontage Road near Belt Line Rd.,Irving,TX,75063,,888-758-4389,E,,Public,24 hours daily,,,,,1,,,,ChargePoint Network,http://www.chargepoint.com/,GPS,32.9216728,-96.9954987,2018-11-19,35486,2018-11-19 10:08:37 UTC,,,,,,,,,NEMA520,US,,,,Public,,public,,
ELEC,Avista Corp,1411 E Mission Ave,,Spokane,WA,99252,,509-489-0500,E,,Public,24 hours daily,,,,,1,2,,,,,GPS,47.673347,-117.388933,2018-08-07,35620,2018-08-07 22:32:24 UTC,P,,,2010-04-15,,,,,J1772 NEMA520,US,,,,Public,,public,,
ELEC,Greensavers,4 NW Franklin Ave,SE of intersection of NW Greeley & Hawthorn downtown,Bend,OR,97701,,541-330-8767,E,,Public,24 hours daily,,,,,1,,,,,,200-9,44.05612,-121.307465,2017-03-03,35727,2018-03-30 20:17:03 UTC,P,,,2010-06-15,,,,,NEMA520,US,,,,Public,,public,,
ELEC,Kwik Trip #465,9250 Springbrook Dr NW,At Coon Rapids Boulevard,Coon Rapids,MN,55433,,763-786-1558,E,,Public,24 hours daily,,,,,1,,,,,,200-9,45.138245,-93.274379,2017-06-02,35943,2018-03-06 01:31:30 UTC,P,,,2010-09-15,,,,,NEMA520,US,,,,Public,,public,,
ELEC,CARCHARGING,1300 NW 17th Ave,DELRAY PROF; North Parking Lot near Congress Ave,Delray Beach,FL,33445,,888-758-4389,E,,Public,24 hours daily,,,,,1,1,,,ChargePoint Network,http://www.chargepoint.com/,GPS,26.4783001,-80.0895004,2018-11-19,35995,2018-11-19 10:08:37 UTC,,,,,,,,,J1772 NEMA520,US,,,,Public,,public,,
ELEC,HALFPRICE BOOKS,5801 E Northwest Hwy,FREE CHARGING; Free Charging at Half Price Books -  SE corner  of parking,Dallas,TX,75231,,888-758-4389,E,,Public,24 hours daily,,,,,1,1,,,ChargePoint Network,http://www.chargepoint.com/,GPS,32.8657913,-96.7641678,2018-11-19,36287,2018-11-19 10:08:37 UTC,,,,,,,,,J1772 NEMA520,US,,,,Public,,public,,
ELEC,TUCSON RENTAL,9855 E Speedway Blvd,9855 E SPEEDWAY; -Station located in front of main office,Tucson,AZ,85748,,888-758-4389,E,,Public,24 hours daily,,,,,1,1,,,ChargePoint Network,http://www.chargepoint.com/,GPS,32.2361565,-110.7817917,2018-11-19,36343,2018-11-19 10:08:37 UTC,,,,,,,,,J1772 NEMA520,US,,,,Public,,public,,
ELEC,MARTINEZ CA,680 Court St,MAIN & COURT ST,Martinez,CA,94553,,888-758-4389,E,,Public,24 hours daily,,,,,1,1,,,ChargePoint Network,http://www.chargepoint.com/,GPS,38.0184746,-122.1345444,2018-11-19,36347,2018-11-19 10:08:37 UTC,,,,,,,,,J1772 NEMA520,US,,,,Public,,public,,
ELEC,VICEROYSNOWMASS,400 Wood Rd,VS-2; PLEASE CALL CUSTOMER SERVICE TO USE THIS STATION,Aspen,CO,81611,,888-758-4389,E,,Public,24 hours daily,,,,,1,1,,,ChargePoint Network,http://www.chargepoint.com/,GPS,39.2075854,-106.9486113,2018-11-19,36351,2018-11-19 10:08:37 UTC,,,,,,,,,J1772 NEMA520,US,,,,Public,,public,,
ELEC,Hyatt Regency - Denver,650 15th St,"At Colorado Convention Center, level 2",Denver,CO,80202,,303-486-4467,E,,Public,24 hours daily; pay lot,,,,,4,,,,,,200-9,39.743687,-104.993312,2018-11-08,36353,2018-11-08 16:06:54 UTC,P,,,2010-03-15,,,,,NEMA520,US,,,,Public,,public,,
ELEC,Whole Foods Market,150 Ledge Rd,,Darien,CT,06820,,203-662-0577,E,,Public,8am-10pm daily; for customer use only,,,,,2,,,,,,200-9,41.072919,-73.476189,2018-06-05,36355,2018-06-05 19:29:00 UTC,P,,,2010-05-19,,,,,NEMA520,US,,,,Public,,public,,
ELEC,MILLENNIUM GRGS,5 S Columbus Dr,"MILLENNIUM GRG1; Go down the ramp to the Millenium Garage, Turn Left",Chicago,IL,60601,,888-758-4389,E,,Public,24 hours daily,,,,,1,,,,ChargePoint Network,http://www.chargepoint.com/,GPS,41.8824425,-87.6204453,2018-11-19,36361,2018-11-19 10:08:37 UTC,,,,,,,,,NEMA520,US,,,,Public,,public,,
ELEC,ARUNDEL MILLS,7522 Teague Rd,ELEMENT HOTELS; ChargePoint available for customer use,Hanover,MD,21076,,888-758-4389,E,,Public,24 hours daily,,,,,1,,,,ChargePoint Network,http://www.chargepoint.com/,GPS,39.1559067,-76.7172165,2018-11-19,36363,2018-11-19 10:08:37 UTC,,,,,,,,,NEMA520,US,,,,Public,,public,,
ELEC,Lane Community College,4000 E 30th Ave,Under solar canopy; Lot B,Eugene,OR,97405,,541-463-3000,E,,Public,"Employee, student, and visitor use only",,,,,10,10,,,,,200-9,44.009797,-123.033213,2018-03-08,36371,2018-03-08 17:27:07 UTC,LG,,,2010-09-05,,,,,J1772 NEMA520,US,,,,Public,,public,,
ELEC,CARDISFURNITURE,1681 Quaker Ln,WEST WARWICK 1; Level I and II charging available to the public,West Warwick,RI,02893,,888-758-4389,E,,Public,24 hours daily,,,,,1,1,,,ChargePoint Network,http://www.chargepoint.com/,GPS,41.6702347,-71.5001144,2018-11-19,36374,2018-11-19 10:08:37 UTC,,,,,,,,,J1772 NEMA520,US,,,,Public,,public,,
ELEC,BROOKFIELD PROP,1600 Smith St,"1600 SMITH   01; Located inside Central Parking
1600 SMITH ST1; Second Level of Garage",Houston,TX,77002,,888-758-4389,E,,Public,24 hours daily,,,,,1,3,,,ChargePoint Network,http://www.chargepoint.com/,200-9,29.754345,-95.372578,2018-11-19,36377,2018-11-19 10:08:37 UTC,,,,,,,,,J1772 NEMA520,US,,,,Public,,public,,
ELEC,BROOKFIELD PROP,300 Clay St,300 CLAY STAT01; Located inside central parking facilities ,Houston,TX,77002,,888-758-4389,E,,Public,24 hours daily,,,,,1,1,,,ChargePoint Network,http://www.chargepoint.com/,GPS,29.7571125,-95.3731689,2018-11-19,36378,2018-11-19 10:08:37 UTC,,,,,,,,,J1772 NEMA520,US,,,,Public,,public,,
ELEC,CITY OF HOUSTON,3915 Rustic Woods Dr,RUSTIC WOODS011; Located at 3915 Rustic Woods,Houston,TX,77339,,888-758-4389,E,,Public,24 hours daily,,,,,1,,,,ChargePoint Network,http://www.chargepoint.com/,GPS,30.0546093,-95.1882629,2018-11-19,36385,2018-11-19 10:08:37 UTC,,,,,,,,,NEMA520,US,,,,Public,,public,,
ELEC,OPALCO,469 Market St,MARKET STREET; -,Eastsound,WA,98245,,888-758-4389,E,,Public,24 hours daily,,,,,1,1,,,ChargePoint Network,http://www.chargepoint.com/,GPS,48.6950989,-122.9040985,2018-11-19,36388,2018-11-19 10:08:37 UTC,,,,,,,,,J1772 NEMA520,US,,,,Public,,public,,
ELEC,OPALCO,162 Weeks Rd,LOPEZ VILLAGE; -,Lopez Island,WA,98261,,888-758-4389,E,,Public,24 hours daily,,,,,1,1,,,ChargePoint Network,http://www.chargepoint.com/,GPS,48.5250015,-122.9152985,2018-11-19,36390,2018-11-19 10:08:37 UTC,,,,,,,,,J1772 NEMA520,US,,,,Public,,public,,
ELEC,SUQUAMISH MASI,16285 Washington 305,"SUQUAMISH MASI1; Suquamish Masi Shop Shell Station
SUQUAMISH MASI2; Suquamish Masi Shop Shell Station",Poulsbo,WA,98370,,888-758-4389,E,,Public,24 hours daily,,,,,2,2,,,ChargePoint Network,http://www.chargepoint.com/,200-9,47.707951,-122.583252,2018-11-19,36391,2018-11-19 10:08:37 UTC,,,,,,,,,J1772 NEMA520,US,,,,Public,,public,,
ELEC,Hudson Valley Community College - TEC-SMART Building,345 Hermes Rd,,Malta,NY,12020,,518-629-7075,E,,Public,7am-10pm M-Sat,,,,,1,,,,,,GPS,42.97167,-73.774182,2017-06-02,36532,2018-02-06 21:00:03 UTC,SG,,,2010-10-15,,,,,NEMA520,US,,,,Public,,public,,
ELEC,INTERPARK,17 E Adams St,"ADAMS WABASH 1; Adams &amp; Wabash Self-Park Garage   www.InterParkGreen.com
ADAMS WABASH 2; Adams &amp; Wabash Self-Park Garage  www.InterParkGreen.com",Chicago,IL,60603,,888-758-4389,E,,Public,24 hours daily,,,,,2,2,,,ChargePoint Network,http://www.chargepoint.com/,200-9,41.879396,-87.626578,2018-11-19,36611,2018-11-19 10:08:37 UTC,,,,,,,,,J1772 NEMA520,US,,,,Public,,public,,
ELEC,INTERPARK,20 E Randolph St,"20 E RANDOLPH 1; Wabash-Randolph Self-Park Garage  www.InterParkGreen.com 
20 E RANDOLPH 2; Wabash-Randolph Self-Park Garage  www.InterParkGreen.com",Chicago,IL,60601,,888-758-4389,E,,Public,24 hours daily,,,,,2,2,,,ChargePoint Network,http://www.chargepoint.com/,200-9,41.884864,-87.627044,2018-11-19,36615,2018-11-19 10:08:37 UTC,,,,,,,,,J1772 NEMA520,US,,,,Public,,public,,
ELEC,INTERPARK,177 N Wells St,LAKE & WELLS 2; Lake Wells Self-Park Garage  www.InterParkGreen.com,Chicago,IL,60606,,888-758-4389,E,,Public,24 hours daily,,,,,1,1,,,ChargePoint Network,http://www.chargepoint.com/,GPS,41.8852234,-87.6337509,2018-11-19,36617,2018-11-19 10:08:37 UTC,,,,,,,,,J1772 NEMA520,US,,,,Public,,public,,
ELEC,INTERPARK,50 E Ohio St,"50 EAST OHIO 1; Located on the east center ramp 4th floor
50 EAST OHIO 2; Located on east center ramp 4th floor",Chicago,IL,60611,,888-758-4389,E,,Public,24 hours daily,,,,,2,2,,,ChargePoint Network,http://www.chargepoint.com/,200-9,41.892777,-87.626092,2018-11-19,36619,2018-11-19 10:08:37 UTC,,,,,,,,,J1772 NEMA520,US,,,,Public,,public,,
ELEC,Propark America - Omni Hotel Chapel Square Garage,155 Temple St,Located on first floor of garage,New Haven,CT,06510,,203-781-8030,E,,Public,24 hours daily; pay lot,,,,,2,2,,1 Tesla Conductive,,,200-9,41.305794,-72.927405,2017-06-02,36924,2018-11-16 21:02:56 UTC,P,,,2010-12-15,,,,,J1772 NEMA520,US,,,,Public,,public,,
ELEC,Propark - Water Street Garage,161 Water St,Located outside off entrance from Water St and inside upon entering garage,New London,CT,06320,,860-443-1775,E,,Public,Restricted to garage hours; pay lot,,,,,8,4,,1 Conductive 120V,,,200-8,41.356472,-72.094412,2018-06-05,36928,2018-06-05 19:29:00 UTC,LG,,,2013-07-01,,,,,J1772 NEMA520,US,,,,Public,,public,,
ELEC,Town of Westport - Westport Metro North,1 Railroad Pl,Eastbound Westport Saugatuck Train Station,Westport,CT,06880,,203-341-1000,E,,Public,24 hours daily; pay lot,,,,,1,1,,,,,200-8,41.119291,-73.369266,2018-04-03,36931,2018-04-03 18:22:40 UTC,LG,,,2012-09-01,,,,,J1772 NEMA520,US,,,,Public,,public,,
ELEC,MEIJER STORES,3565 Fairlane Dr,"ALLEN PARK 01; Located North West Corner of Facility
ALLEN PARK 02; Located On North West Corner of Building",Allen Park,MI,48101,,888-758-4389,E,,Public,24 hours daily,,,,,2,2,,,ChargePoint Network,http://www.chargepoint.com/,200-8,42.279038,-83.20793,2018-11-19,36935,2018-11-19 10:08:37 UTC,,,,,,,,,J1772 NEMA520,US,,,,Public,,public,,
ELEC,MEIJER STORES,746 E 16th St,"HOLLAND 01
HOLLAND 02",Holland,MI,49423,,888-758-4389,E,,Public,24 hours daily,,,,,2,2,,,ChargePoint Network,http://www.chargepoint.com/,200-8,42.783017,-86.075654,2018-11-19,36937,2018-11-19 10:08:37 UTC,,,,,,,,,J1772 NEMA520,US,,,,Public,,public,,
ELEC,DTE ENERGY,6545 Mercantile Way,LANSING MPSC; -,Lansing Charter Township,MI,48911,,888-758-4389,E,,Public,24 hours daily,,,,,1,1,,,ChargePoint Network,http://www.chargepoint.com/,GPS,42.6636848,-84.5352173,2018-11-19,36938,2018-11-19 10:08:37 UTC,,,,,,,,,J1772 NEMA520,US,,,,Public,,public,,
ELEC,OLD TOWN DECK,125 E 8th St,"1ST FLOOR SOUTH
2ND FLOOR NORTH; PLEASE CALL CUSTOMER SERVICE TO USE THIS STATION
3RD FLOOR; Located on the  3rd floor of the old town parking deck
GROUND LEVEL; Ground level NE corner",Traverse City,MI,49684,,888-758-4389,E,,Public,24 hours daily,,,,,3,5,,,ChargePoint Network,http://www.chargepoint.com/,200-9,44.760362,-85.622106,2018-11-19,36941,2018-11-19 10:08:37 UTC,,,,,,,,,J1772 NEMA520,US,,,,Public,,public,,
ELEC,MEIJER STORES,29377-29625 Mound Rd,WARREN 01;  Located on South East Corner Of Store,Warren,MI,48092,,888-758-4389,E,,Public,24 hours daily,,,,,1,1,,,ChargePoint Network,http://www.chargepoint.com/,GPS,42.5090141,-83.0488281,2018-11-19,36943,2018-11-19 10:08:37 UTC,,,,,,,,,J1772 NEMA520,US,,,,Public,,public,,
ELEC,EDISONPARKFAST,451 9th Ave,"LOC #250 #2
LOT#250; ChargePoint America Program",New York,NY,10018,,888-758-4389,E,,Public,24 hours daily,,,,,1,2,,,ChargePoint Network,http://www.chargepoint.com/,200-9,40.754512,-73.995938,2018-11-19,36945,2018-11-19 10:08:37 UTC,,,,,,,,,J1772 NEMA520,US,,,,Public,,public,,
ELEC,CIT,2214 Rock Hill Rd,CIT HQ 001; Station is located near Lobby entrance,Herndon,VA,20170,,888-758-4389,E,,Public,24 hours daily,,,,,1,1,,,ChargePoint Network,http://www.chargepoint.com/,GPS,38.9642906,-77.4203949,2018-11-19,36948,2018-11-19 10:08:37 UTC,,,,,,,,,J1772 NEMA520,US,,,,Public,,public,,
ELEC,Spinx #149,1619 Decker Blvd,Located to the right of building,Columbia,SC,29206,,803-782-4151,E,,Public - Credit card at all times,24 hours daily,A D M V,,,,1,1,,,,,200-9,34.042116,-80.939041,2017-06-02,37056,2018-11-16 19:45:23 UTC,P,,,2010-12-15,,,,,J1772 NEMA520,US,,,,Public - Carte de crédit en tout temps,,public,CREDIT_CARD_ALWAYS,
ELEC,OUC,6021 S Conway Rd,"OC IFAS EVSE 01; EV Charger Located Under Solar Array on North side of building.
OC IFAS EXT 1; Parking Lot, Last parking space on left",Orlando,FL,32812,,888-758-4389,E,,Public,24 hours daily,,,,,1,3,,,ChargePoint Network,http://www.chargepoint.com/,200-9,28.468253,-81.328108,2018-11-19,37163,2018-11-19 10:08:37 UTC,,,,,,,,,J1772 NEMA520,US,,,,Public,,public,,
ELEC,INTERPARK,318 S Federal St,"SOUTH LOOP 1; South Loop Self-Park Garage  www.InterParkGreen.com 
SOUTH LOOP 2; South Loop Self-Park Garage  www.InterParkGreen.com",Chicago,IL,60604,,888-758-4389,E,,Public,24 hours daily,,,,,2,2,,,ChargePoint Network,http://www.chargepoint.com/,200-9,41.877804,-87.629911,2018-11-19,37164,2018-11-19 10:08:37 UTC,,,,,,,,,J1772 NEMA520,US,,,,Public,,public,,
ELEC,CARCHARGING,350 W 50th St,ICON MERCURY; Icon parking see attendant for access ,New York,NY,10019,,888-758-4389,E,,Public,24 hours daily,,,,,1,1,,,ChargePoint Network,http://www.chargepoint.com/,GPS,40.7632446,-73.9886475,2018-11-19,37169,2018-11-19 10:08:37 UTC,,,,,,,,,J1772 NEMA520,US,,,,Public,,public,,
ELEC,HILLSBORO OR,150 E Main St,"150 E MAIN 03; -
MAIN ST 1; In Front of City Hall
MAIN ST 2; In front of City Hall",Hillsboro,OR,97123,,888-758-4389,E,,Public,24 hours daily,,,,,1,5,,,ChargePoint Network,http://www.chargepoint.com/,200-8,45.522458,-122.98884,2018-11-19,37170,2018-11-19 10:08:37 UTC,,,,,,,,,J1772 NEMA520,US,,,,Public,,public,,
ELEC,HILLSBORO OR,253 SE 8th Ave,"EV-10; Hillsboro ITF, 4th Floor 
EV-11; Hillsboro ITF, 4th Floor, East side
EV-12; Hillsboro ITF, 5th floor, West side 
EV-13; Hillsboro ITF, 5th Floor, East side
EV-6; Hillsboro ITF 2nd Floor, West side
EV-7
EV-8; Hillsboro ITF, 3rd Floor west
EV-9; Hillsboro ITF, 3rd Floor, East side
ITF 1; Intermodal Transit Facility
ITF 2
ITF 3; Intermodal Transit Facility 
ITF 4; Intermodal Transit Facility
ITF 5; Intermodal Transit Facility",Hillsboro,OR,97123,,888-758-4389,E,,Public,24 hours daily,,,,,13,13,,,ChargePoint Network,http://www.chargepoint.com/,200-9,45.520375,-122.978105,2018-11-19,37171,2018-11-19 10:08:37 UTC,,,,,,,,,J1772 NEMA520,US,,,,Public,,public,,
ELEC,WHOLE FOODS MKT,105 E Stacy Rd,105 E STACY RD,Fairview,TX,75069,,888-758-4389,E,,Public,24 hours daily,,,,,1,1,,,ChargePoint Network,http://www.chargepoint.com/,GPS,33.1310948,-96.6565774,2018-11-19,37175,2018-11-19 10:08:37 UTC,,,,,,,,,J1772 NEMA520,US,,,,Public,,public,,
ELEC,BUF WILD WINGS,2465 S Hwy 27,"CLERMONT 01; Station is at corner of bldg, right of main entrance",Clermont,FL,34714,,888-758-4389,E,,Public,24 hours daily,,,,,1,1,,,ChargePoint Network,http://www.chargepoint.com/,GPS,28.5379448,-81.7375031,2018-11-19,37190,2018-11-19 10:08:37 UTC,,,,,,,,,J1772 NEMA520,US,,,,Public,,public,,
ELEC,Solar Living Institute,13771 S Highway 101,,Hopland,CA,95449,,707-472-2460,E,,Public - Call ahead,10am-6pm daily; see front desk for access,,,,,2,,,2 Other Conductive,,,GPS,38.966725,-123.114542,2018-10-04,37264,2018-10-04 21:43:30 UTC,P,,,1989-04-15,,,,,NEMA515,US,,,,Public - Appeler à l'avance,,public,CALL,
ELEC,Salt Lake City Main Library,210 E 400 S,Level P2 of library parking garage.  Stalls in southeast corner.,Salt Lake City,UT,84111,,801-535-6630,E,,Public,7:30am-10pm daily; pay lot; maximum session time of 4 hours,,,,,2,1,,,,,200-9,40.759561,-111.883924,2018-08-07,37658,2018-08-07 22:32:24 UTC,LG,,,2011-02-15,,,,,J1772 NEMA520,US,,,,Public,,public,,
ELEC,Eastside Big Tom,2023 4th Ave E,,Olympia,WA,98501,,360-357-4852,E,,Public,24 hours daily,,,,,1,,,,,,200-9,47.04578,-122.871901,2018-06-05,37663,2018-06-05 19:29:00 UTC,P,,,2008-01-15,,,,,NEMA520,US,,,,Public,,public,,
ELEC,Group Health Olympia Medical Center,700 Lilly Rd,,Olympia,WA,98506,,360-923-7670,E,,Public,24 hours daily,,,,,1,,,,,,200-9,47.056888,-122.841752,2018-06-05,37664,2018-06-05 19:29:00 UTC,P,,,2008-01-15,,,,,NEMA520,US,,,,Public,,public,,
ELEC,Les Schwab Tires,210 State Ave NW,,Olympia,WA,98501,,360-943-0870,E,,Public - Call ahead,Store business hours; ask staff for assistance,,,,,1,,,,,,200-9,47.045903,-122.903434,2018-06-05,37667,2018-06-05 19:29:00 UTC,P,,,2008-01-15,,,,,NEMA520,US,,,,Public - Appeler à l'avance,,public,CALL,
ELEC,McDonald's,2611 Harrison Ave NW,,Olympia,WA,98502,,360-357-4445,E,,Public,24 hours daily,,,,,1,,,,,,GPS,47.045792,-122.933675,2018-06-05,37669,2018-06-05 19:29:00 UTC,P,,,2007-01-15,,,,,NEMA520,US,,,,Public,,public,,
ELEC,The Evergreen State College,2700 Evergreen Pkwy NW,Parking Lot C,Olympia,WA,98505,,360-867-6352,E,,Public,24 hours daily; permit required; pay lot,,,,,2,2,,,,,GPS,47.071917,-122.976675,2018-11-08,37673,2018-11-08 16:06:54 UTC,SG,,,2009-12-15,,,,,J1772 NEMA520,US,,,,Public,,public,,
ELEC,Washington Department of Labor & Industries - Department of Health - Department of Transportation,243 Israel Rd SE,,Tumwater,WA,98501,,360-236-3070,E,,Public,24 hours daily,,,,,1,,,,,,200-9,46.984193,-122.904856,2018-06-05,37677,2018-06-05 19:29:00 UTC,LG,,,2008-01-15,,,,,NEMA520,US,,,,Public,,public,,
ELEC,KCPL,12345 College Blvd,"JCCC #1A; Located in West Garage parking near the Carlsen Center - lower level of the garage.
JCCC #1B; Located in West Garage parking near the Carlsen Center - lower level of the garage.",Overland Park,KS,66210,,888-758-4389,E,,Public,24 hours daily,,,,,2,2,,,ChargePoint Network,http://www.chargepoint.com/,200-9,38.922177,-94.732554,2018-11-19,37683,2018-11-19 10:08:37 UTC,,,,,,,,,J1772 NEMA520,US,,,,Public,,public,,
ELEC,WESTLANDCOLONIA,8181 N Wayne Rd,VILLAGE APTS; West Entrance Off Wayne Rd. 1st spot on right.  ,Westland,MI,48185,,888-758-4389,E,,Public,24 hours daily,,,,,1,1,,,ChargePoint Network,http://www.chargepoint.com/,GPS,42.3471832,-83.3866577,2018-11-19,37687,2018-11-19 10:08:37 UTC,,,,,,,,,J1772 NEMA520,US,,,,Public,,public,,
ELEC,KCPL,30 West Pershing Rd,"UNION STATN #1A; Located in the Union Station parking garage, SE corner.",Kansas City,MO,64108,,888-758-4389,E,,Public,24 hours daily,,,,,1,1,,,ChargePoint Network,http://www.chargepoint.com/,GPS,39.0847397,-94.5871582,2018-11-19,37691,2018-11-19 10:08:37 UTC,,,,,,,,,J1772 NEMA520,US,,,,Public,,public,,
ELEC,SCHOOLCRAFT EDU,18600 Haggerty Rd,"LIBRARY 01; -This station provides simultaneous 110V and 240V charging! Use your ChargePoint card for access.
LIBRARY 02; -This station provides simultaneous 110V and 240V charging! Use your ChargePoint card for access.
NORTH LOT 01; -This station provides simultaneous 110V and 240V charging! Use your ChargePoint card for access.
NORTH LOT 02; -This station provides simultaneous 110V and 240V charging! Use your ChargePoint card for access.",Livonia,MI,48152,,888-758-4389,E,,Public,24 hours daily,,,,,4,4,,,ChargePoint Network,http://www.chargepoint.com/,200-8,42.419141,-83.432592,2018-11-19,37693,2018-11-19 10:08:37 UTC,,,,,,,,,J1772 NEMA520,US,,,,Public,,public,,
ELEC,GVSU MAREC,200 Viridian Dr,MAREC 1; 200 Viridian Dr.,Muskegon,MI,49440,,888-758-4389,E,,Public,24 hours daily,,,,,1,1,,,ChargePoint Network,http://www.chargepoint.com/,GPS,43.2418213,-86.252861,2018-11-19,37694,2018-11-19 10:08:37 UTC,,,,,,,,,J1772 NEMA520,US,,,,Public,,public,,
ELEC,KCPL,220 SE Green,"LEE'S SUMMIT#1A; Located in the parking garage at City Hall. First level, west side of garage.",Lees Summit,MO,64063,,888-758-4389,E,,Public,24 hours daily,,,,,1,1,,,ChargePoint Network,http://www.chargepoint.com/,GPS,38.9140699,-94.3763219,2018-11-19,37697,2018-11-19 10:08:37 UTC,,,,,,,,,J1772 NEMA520,US,,,,Public,,public,,
ELEC,KCPL,5352 Faraon St.,HEARTLAND #1A; Inside the hospital parking garage; lower level - SE corner,St Joseph,MO,64506,,888-758-4389,E,,Public,24 hours daily,,,,,1,1,,,ChargePoint Network,http://www.chargepoint.com/,GPS,39.7739372,-94.7692947,2018-11-19,37699,2018-11-19 10:08:37 UTC,,,,,,,,,J1772 NEMA520,US,,,,Public,,public,,
ELEC,KING COUNTY DOT,1755 Highlands Dr NE,"IH P&R UNIT #1; Issaquah Park &amp; Ride lower Level, bottom of ramp
ISSAQUAH P&R #2; Lower Level
ISSAQUAH P&R #3; Lower Level
ISSAQUAH P&R #4; Lower Level
ISSAQUAH P&R #5; Lower Level
ISSAQUAH P&R 11; Lower Level
ISSAQUAH P&R 12; Lower Level",Issaquah,WA,98027,,888-758-4389,E,,Public,24 hours daily,,,,,4,7,,,ChargePoint Network,http://www.chargepoint.com/,200-9,47.545609,-122.019598,2018-11-19,38082,2018-11-19 10:08:37 UTC,,,,,,,,,J1772 NEMA520,US,,,,Public,,public,,
ELEC,Denver International Airport - Canopy Airport Parking,8100 Tower Rd,Located in the indoor valet and covered self-parking,Commerce City,CO,80022,,303-574-9800,E,,Public,24 hours daily; pay lot,,,,,18,9,1,,,,200-9,39.844569,-104.76788,2018-11-08,38522,2018-11-08 16:06:54 UTC,P,,,2010-10-19,,,,,CHADEMO J1772 NEMA515,US,,,,Public,,public,,
ELEC,Charles Hotel - Harvard Square,1 Bennett St,,Cambridge,MA,02138,,617-491-0298,E,,Public,24 hours daily; pay lot,,,,,1,1,,,,,200-9,42.372442,-71.122882,2018-07-09,38525,2018-07-09 12:13:28 UTC,P,,,2010-09-13,,,,,J1772 NEMA515,US,,,,Public,,public,,
ELEC,DMD PARKING FAC,400-498 3rd St NW,ABQ STATION #1; Located along the curb on East side just N of Marquette,Albuquerque,NM,87102,,888-758-4389,E,,Public,24 hours daily,,,,,1,1,,,ChargePoint Network,http://www.chargepoint.com/,GPS,35.0884705,-106.6495667,2018-11-19,38529,2018-11-19 10:08:37 UTC,,,,,,,,,J1772 NEMA520,US,,,,Public,,public,,
ELEC,CARCHARGING,310 W 39th St,ICON 310 W 39TH; Icon Parking systems see valet for access,New York,NY,10018,,888-758-4389,E,,Public,24 hours daily,,,,,1,1,,,ChargePoint Network,http://www.chargepoint.com/,GPS,40.7554398,-73.9920273,2018-11-19,38530,2018-11-19 10:08:37 UTC,,,,,,,,,J1772 NEMA520,US,,,,Public,,public,,
ELEC,CITY OF EUSTIS,1-99 S Eustis St,EUSTIS FL 01; Parking Garage at Corner of Eustis St. & Orange Ave.,Eustis,FL,32726,,888-758-4389,E,,Public,24 hours daily,,,,,1,1,,,ChargePoint Network,http://www.chargepoint.com/,GPS,28.8524609,-81.6845551,2018-11-19,38796,2018-11-19 10:08:37 UTC,,,,,,,,,J1772 NEMA520,US,,,,Public,,public,,
ELEC,CITY OF EUSTIS,Clifford Ave,EUSTIS FL 05,Eustis,FL,32726,,888-758-4389,E,,Public,24 hours daily,,,,,1,1,,,ChargePoint Network,http://www.chargepoint.com/,GPS,28.8553562,-81.6843796,2018-11-19,38797,2018-11-19 10:08:37 UTC,,,,,,,,,J1772 NEMA520,US,,,,Public,,public,,
ELEC,CITY OF EUSTIS,Ferran Park Dr,EUSTIS FL 02,Eustis,FL,32726,,888-758-4389,E,,Public,24 hours daily,,,,,1,1,,,ChargePoint Network,http://www.chargepoint.com/,GPS,28.8540993,-81.6862259,2018-11-19,38798,2018-11-19 10:08:37 UTC,,,,,,,,,J1772 NEMA520,US,,,,Public,,public,,
ELEC,CARCHARGING,1771 Airport Rd,KING AIRPORT; See attendant for information,Jacksonville,FL,32218,,888-758-4389,E,,Public,24 hours daily,,,,,1,1,,,ChargePoint Network,http://www.chargepoint.com/,GPS,30.4852524,-81.6623993,2018-11-19,38799,2018-11-19 10:08:37 UTC,,,,,,,,,J1772 NEMA520,US,,,,Public,,public,,
ELEC,RESIDENCE INN,825 Heathrow Park Ln,"RILM EV 01
RILM EV 02; West Parking Lot",Lake Mary,FL,32746,,888-758-4389,E,,Public,24 hours daily,,,,,2,2,,,ChargePoint Network,http://www.chargepoint.com/,200-9,28.783454,-81.355529,2018-11-19,38801,2018-11-19 10:08:37 UTC,,,,,,,,,J1772 NEMA520,US,,,,Public,,public,,
ELEC,GO ELECTRIC INC,403 N Hwy 17-92,UNIT 001; Located next to store front entrance,Longwood,FL,32750,,888-758-4389,E,,Public,24 hours daily,,,,,1,1,,,ChargePoint Network,http://www.chargepoint.com/,GPS,28.7034283,-81.3263855,2018-11-19,38802,2018-11-19 10:08:37 UTC,,,,,,,,,J1772 NEMA520,US,,,,Public,,public,,
ELEC,CENTRAL FL ZOO,3755 NW Hwy 17-92,ZOO UNIT 01; Parking Lot near Ticket Booth,Sanford,FL,32771,,888-758-4389,E,,Public,24 hours daily,,,,,1,1,,,ChargePoint Network,http://www.chargepoint.com/,GPS,28.825325,-81.3150101,2018-11-19,38809,2018-11-19 10:08:37 UTC,,,,,,,,,J1772 NEMA520,US,,,,Public,,public,,
ELEC,EDISONPARKFAST,160 Edison Pl,LOT#1,Newark,NJ,07105,,888-758-4389,E,,Public,24 hours daily,,,,,1,1,,,ChargePoint Network,http://www.chargepoint.com/,GPS,40.7323647,-74.1654282,2018-11-19,38818,2018-11-19 10:08:37 UTC,,,,,,,,,J1772 NEMA520,US,,,,Public,,public,,
ELEC,EDISONPARKFAST,986 Raymond Blvd,"LOT#22; Enter lot from Raymond Blvd, station attached to booth ",Newark,NJ,07105,,888-758-4389,E,,Public,24 hours daily,,,,,1,1,,,ChargePoint Network,http://www.chargepoint.com/,GPS,40.7337914,-74.1622849,2018-11-19,38819,2018-11-19 10:08:37 UTC,,,,,,,,,J1772 NEMA520,US,,,,Public,,public,,
ELEC,EDISONPARKFAST,675 New County Rd,LOT#175,Secaucus,NJ,07094,,888-758-4389,E,,Public,24 hours daily,,,,,1,1,,,ChargePoint Network,http://www.chargepoint.com/,GPS,40.7629395,-74.0762634,2018-11-19,38820,2018-11-19 10:08:37 UTC,,,,,,,,,J1772 NEMA520,US,,,,Public,,public,,
ELEC,EVESHAM LEED,2401 E Evesham Rd,2401  1,Voorhees Township,NJ,08043,,888-758-4389,E,,Public,24 hours daily,,,,,1,1,,,ChargePoint Network,http://www.chargepoint.com/,GPS,39.8655548,-74.9537735,2018-11-19,38821,2018-11-19 10:08:37 UTC,,,,,,,,,J1772 NEMA520,US,,,,Public,,public,,
ELEC,IRON EAGLE TECH,4037 Main St,AMERICINN 01,Elk Horn,IA,51531,,888-758-4389,E,,Public,24 hours daily,,,,,1,1,,,ChargePoint Network,http://www.chargepoint.com/,GPS,41.5887909,-95.0595016,2018-11-19,38845,2018-11-19 10:08:37 UTC,,,,,,,,,J1772 NEMA520,US,,,,Public,,public,,
ELEC,999 E. TOUHY,999 E Touhy Ave.,"OHARE OFFICES 1; O'Hare Offices - Located off of I90 adjacent from All State Arena
OHARE OFFICES 2; O'Hare Offices - Located off of I90 adjacent from All State Arena",Des Plaines,IL,60018,,888-758-4389,E,,Public,24 hours daily,,,,,2,2,,,ChargePoint Network,http://www.chargepoint.com/,200-9,42.008491,-87.899666,2018-11-19,38853,2018-11-19 10:08:37 UTC,,,,,,,,,J1772 NEMA520,US,,,,Public,,public,,
ELEC,ROELAND PARK,4600 W 51st St,CITY HALL,Roeland Park,KS,66205,,888-758-4389,E,,Public,24 hours daily,,,,,1,1,,,ChargePoint Network,http://www.chargepoint.com/,GPS,39.0367622,-94.6379623,2018-11-19,38860,2018-11-19 10:08:37 UTC,,,,,,,,,J1772 NEMA520,US,,,,Public,,public,,
ELEC,MCDONALD SWLA,625 E Prien Lake Rd,CHARGE AT MCD 1,Lake Charles,LA,70601,,888-758-4389,E,,Public,24 hours daily,,,,,1,1,,,ChargePoint Network,http://www.chargepoint.com/,GPS,30.1987038,-93.2123184,2018-11-19,38861,2018-11-19 10:08:37 UTC,,,,,,,,,J1772 NEMA520,US,,,,Public,,public,,
ELEC,UMD COLLEGEPARK,4116-4138 Mowatt Ln,LOTMV1; -,College Park,MD,20740,,888-758-4389,E,,Public,24 hours daily,,,,,1,1,,,ChargePoint Network,http://www.chargepoint.com/,GPS,38.9822044,-76.9461288,2018-11-19,38866,2018-11-19 10:08:37 UTC,,,,,,,,,J1772 NEMA520,US,,,,Public,,public,,
ELEC,UMD COLLEGEPARK,Library Ln,"UNION LANE 1
UNION LANE 2
UNION LANE 3",College Park,MD,20740,,888-758-4389,E,,Public,24 hours daily,,,,,3,3,,,ChargePoint Network,http://www.chargepoint.com/,GPS,38.9882507,-76.9455338,2018-11-19,38868,2018-11-19 10:08:37 UTC,,,,,,,,,J1772 NEMA520,US,,,,Public,,public,,
ELEC,UMD COLLEGEPARK,Regents Dr,"REGENTS DRIVE 2; Regents Drive Garage
REGENTS DRIVE 3; Located in the Regents Drive parking garage
REGENTS DRIVE; level 1 of garage northeast corner by elevator",College Park,MD,20740,,888-758-4389,E,,Public,24 hours daily,,,,,3,3,,,ChargePoint Network,http://www.chargepoint.com/,GPS,38.9898224,-76.9410324,2018-11-19,38869,2018-11-19 10:08:37 UTC,,,,,,,,,J1772 NEMA520,US,,,,Public,,public,,
ELEC,UMD COLLEGEPARK,Stadium Dr,STADIUM GARAGE; North stadium garage,College Park,MD,20740,,888-758-4389,E,,Public,24 hours daily,,,,,1,1,,,ChargePoint Network,http://www.chargepoint.com/,GPS,38.9913406,-76.9487762,2018-11-19,38870,2018-11-19 10:08:37 UTC,,,,,,,,,J1772 NEMA520,US,,,,Public,,public,,
ELEC,WESTERN MICH U,1100 West Michigan,"1100 W MICH#1
1100 W MICH#2",Kalamazoo,MI,49008,,888-758-4389,E,,Public,24 hours daily,,,,,2,2,,,ChargePoint Network,http://www.chargepoint.com/,GPS,42.2877159,-85.5996246,2018-11-19,38875,2018-11-19 10:08:37 UTC,,,,,,,,,J1772 NEMA520,US,,,,Public,,public,,
ELEC,WESTERN MICH U,2150 W Michigan Ave,2150 W MICH,Kalamazoo,MI,49008,,888-758-4389,E,,Public,24 hours daily,,,,,1,1,,,ChargePoint Network,http://www.chargepoint.com/,GPS,42.2837715,-85.6131821,2018-11-19,38876,2018-11-19 10:08:37 UTC,,,,,,,,,J1772 NEMA520,US,,,,Public,,public,,
ELEC,WESTERN MICH U,4601 Campus Drive,5000 PARKVIEW; -,Kalamazoo,MI,49008,,888-758-4389,E,,Public,24 hours daily,,,,,1,1,,,ChargePoint Network,http://www.chargepoint.com/,GPS,42.2545967,-85.6401672,2018-11-19,38877,2018-11-19 10:08:37 UTC,,,,,,,,,J1772 NEMA520,US,,,,Public,,public,,
ELEC,CITY OF LOWELL,302 W Main St,302 W MAIN; 302 W  MAIN,Lowell,MI,49331,,888-758-4389,E,,Public,24 hours daily,,,,,1,1,,,ChargePoint Network,http://www.chargepoint.com/,GPS,42.9334908,-85.3407593,2018-11-19,38879,2018-11-19 10:08:37 UTC,,,,,,,,,J1772 NEMA520,US,,,,Public,,public,,
ELEC,NORTON SHORES,4680-4764 Henry St,4814 HENRY ST,Norton Shores,MI,49441,,888-758-4389,E,,Public,24 hours daily,,,,,1,1,,,ChargePoint Network,http://www.chargepoint.com/,GPS,43.1652298,-86.2635498,2018-11-19,38881,2018-11-19 10:08:37 UTC,,,,,,,,,J1772 NEMA520,US,,,,Public,,public,,
ELEC,ECM WEBER ELEC,332 N Minnesota St,"1ST NATIONAL #1; Station located in 1st National Bank Building, level P1 ",St Paul,MN,55101,,888-758-4389,E,,Public,24 hours daily,,,,,1,1,,,ChargePoint Network,http://www.chargepoint.com/,GPS,44.9466324,-93.0914612,2018-11-19,38886,2018-11-19 10:08:37 UTC,,,,,,,,,J1772 NEMA520,US,,,,Public,,public,,
ELEC,PARK TOWER,3401-3447 Park Center Dr,"L1 EAST 01; Pay to park: enter Park Center Dr, go left, stns to left 
L1 EAST 02; Pay to park: Enter Park Center Dr, go left, stns on left",Costa Mesa,CA,92626,,888-758-4389,E,,Public,24 hours daily,,,,,1,2,,,ChargePoint Network,http://www.chargepoint.com/,200-8,33.692541,-117.883687,2018-11-19,38902,2018-11-19 10:08:37 UTC,,,,,,,,,J1772 NEMA520,US,,,,Public,,public,,
ELEC,PLAZA TOWER,600 Anton Blvd,"L1 SOUTH 01; Pay to park: Enter Park Center Dr, go strt, go right
L1 SOUTH 02; Pay to park: Enter Park Center Dr, go strt to end, go right
L1 SOUTH 03; Pay to Park: Enter Park Center Dr., go straight to end, go right.
L1 SOUTH 04; Pay to Park: Enter Park Center Dr, go strt to end, go right.",Costa Mesa,CA,92626,,888-758-4389,E,,Public,24 hours daily,,,,,1,6,,,ChargePoint Network,http://www.chargepoint.com/,200-9,33.690208,-117.881973,2018-11-19,38904,2018-11-19 10:08:37 UTC,,,,,,,,,J1772 NEMA520,US,,,,Public,,public,,
ELEC,CAISO,250 Outcropping Way,"EVCS-10;  Employee parking at CAL ISO
EVCS-11;  Employee parking at Cal ISO
EVCS-13;  Employee parking at CAL ISO 
EVCS-14; Lucky Lot parking 
EVCS-15; Lucky Lot parking 
EVCS-16; Lucky Lot parking 
EVCS-17; Lucky Lot parking. 
EVCS-18; Visitors parking 
EVCS-1; For employees only
EVCS-3; For CAISO use only
EVCS-4; For Employees Only
EVCS-5; No General Public Access - Must be a registered visitor
EVCS-6; No General Public Access - Must be a registered visitor
EVCS-7; For Employee Use Only
EVCS-8; For Employee Use Only
EVCS-9;  Employee parking Cal ISO
EVSE-12;  Employee parking at CAL ISO",Folsom,CA,95630,,888-758-4389,E,,Public,24 hours daily,,,,,1,33,,,ChargePoint Network,http://www.chargepoint.com/,200-9,38.643672,-121.148439,2018-11-19,38905,2018-11-19 10:08:37 UTC,,,,,,,,,J1772 NEMA520,US,,,,Public,,public,,
ELEC,IRVINE COMPANY,1101 Newport Center Dr,"TOP LVL PS1 01
TOP LVL PS1 02",Newport Beach,CA,92660,,888-758-4389,E,,Public,24 hours daily,,,,,2,2,,,ChargePoint Network,http://www.chargepoint.com/,200-9,33.61478,-117.876362,2018-11-19,38918,2018-11-19 10:08:37 UTC,,,,,,,,,J1772 NEMA520,US,,,,Public,,public,,
ELEC,OAK INT AIRPORT,1 Airport Dr,"PREMIER 1; Premier Parking Lot
PREMIER 2; Premier Parking Lot
PREMIER 3; Premier Parking Lot 
PREMIER 4; Premier Parking Lot
PREMIER 5; Premier Parking Lot
PREMIER 6; Premier Parking Lot
PREMIER 7; Premier Parking Lot
PREMIER ADA; Premier Parking Lot / ADA",Oakland,CA,94621,,888-758-4389,E,,Public,24 hours daily,,,,,8,8,,,ChargePoint Network,http://www.chargepoint.com/,200-9,37.712381,-122.21333,2018-11-19,38926,2018-11-19 10:08:37 UTC,,,,,,,,,J1772 NEMA520,US,,,,Public,,public,,
ELEC,ECOLOGY ACTION,877 Cedar Street,"CEDAR STREET 01; Solar Powered!
CEDAR STREET 02; Solar Powered!
CEDAR STREET 03; Solar Powered!",Santa Cruz,CA,95060,,888-758-4389,E,,Public,24 hours daily,,,,,3,3,,,ChargePoint Network,http://www.chargepoint.com/,200-9,36.974164,-122.027788,2018-11-19,38934,2018-11-19 10:08:37 UTC,,,,,,,,,J1772 NEMA520,US,,,,Public,,public,,
ELEC,CARCHARGING,123 NE 20th Ave,"USA DEERFLD GAR; Enter garage from south, station is first space on the left ",Deerfield Beach,FL,33441,,888-758-4389,E,,Public,24 hours daily,,,,,1,1,,,ChargePoint Network,http://www.chargepoint.com/,GPS,26.3156242,-80.07827,2018-11-19,38948,2018-11-19 10:08:37 UTC,,,,,,,,,J1772 NEMA520,US,,,,Public,,public,,
ELEC,CITY OF EUSTIS,101-199 N Eustis St,EUSTIS FL 03,Eustis,FL,32726,,888-758-4389,E,,Public,24 hours daily,,,,,1,1,,,ChargePoint Network,http://www.chargepoint.com/,GPS,28.8540115,-81.6846619,2018-11-19,38949,2018-11-19 10:08:37 UTC,,,,,,,,,J1772 NEMA520,US,,,,Public,,public,,
ELEC,CITY OF EUSTIS,128 E Magnolia Ave,EUSTIS FL 04,Eustis,FL,32726,,888-758-4389,E,,Public,24 hours daily,,,,,1,1,,,ChargePoint Network,http://www.chargepoint.com/,GPS,28.853466,-81.683876,2018-11-19,38951,2018-11-19 10:08:37 UTC,,,,,,,,,J1772 NEMA520,US,,,,Public,,public,,
ELEC,DUVALL FIRE D45,15600 1st Ave NE,"DUVALL FIRE #1; Open to public, Corner of 1st and Stella; east parking lot.",Duvall,WA,98019,,888-758-4389,E,,Public,24 hours daily,,,,,1,1,,,ChargePoint Network,http://www.chargepoint.com/,GPS,47.7413216,-121.9840469,2018-11-19,38955,2018-11-19 10:08:37 UTC,,,,,,,,,J1772 NEMA520,US,,,,Public,,public,,
ELEC,WHIDBEY TELECOM,1651 Main St,"STATION 1; Open to the Public
STATION 2
STATION 3; Open to the Public",Freeland,WA,98249,,888-758-4389,E,,Public,24 hours daily,,,,,3,3,,,ChargePoint Network,http://www.chargepoint.com/,200-9,48.010088,-122.525826,2018-11-19,38956,2018-11-19 10:08:37 UTC,,,,,,,,,J1772 NEMA520,US,,,,Public,,public,,
ELEC,BELLEVUE SQUARE,600 100th Pl NE,"BELL SQ WEST 1; 2nd level West Garage Parking Structure, next to Bell Sky 2
BELL SQ WEST 2; 2nd level of West Garage Parking Structure, at sky bridge
BELL SQ WEST 3; 2nd level, West Garage at Sky 2 entrance
BELL SQ WEST 4; 2nd level of West Garage Parking Structure, next to Bellevue
BELL SQ WEST 5; 2nd Floor, west garage at sky bridge",Bellevue,WA,98004,,888-758-4389,E,,Public,24 hours daily,,,,,5,5,,,ChargePoint Network,http://www.chargepoint.com/,GPS,47.6161423,-122.2055511,2018-11-19,38961,2018-11-19 10:08:37 UTC,,,,,,,,,J1772 NEMA520,US,,,,Public,,public,,
ELEC,LINCOLN SQUARE,700 Bellevue Way NE,"LINCLN SQ#4; Level P1 in 30 minute area but not limited to 30 minutes
LINCOLN P1 #2; P1 Level, near Lincoln Square Main Elevators
LINCOLN P1#3; Level P1 in 30 minute parking area, but not 30 minute limit",Bellevue,WA,98004,,888-758-4389,E,,Public,24 hours daily,,,,,3,3,,,ChargePoint Network,http://www.chargepoint.com/,200-9,47.616755,-122.200826,2018-11-19,38963,2018-11-19 10:08:37 UTC,,,,,,,,,J1772 NEMA520,US,,,,Public,,public,,
ELEC,BELLEVUE PLACE,800 Bellevue Way NE,"BELL PLACE 1; located at P1 Level, opposite to the Elevator
BELL PLACE 2; P1 Level, opposite to the Elevator of Bellevue Place Office ",Bellevue,WA,98004,,888-758-4389,E,,Public,24 hours daily,,,,,2,2,,,ChargePoint Network,http://www.chargepoint.com/,200-9,47.617814,-122.20067,2018-11-19,38964,2018-11-19 10:08:37 UTC,,,,,,,,,J1772 NEMA520,US,,,,Public,,public,,
ELEC,WILLOWS LODGE,14580 NE 145th St,"NORTH #1; Willows Lodge/Barking Frog/The Herbfarm
SOUTH #2 ADA; Willows Lodge/Barking Frog/The Herbfarm",Woodinville,WA,98072,,888-758-4389,E,,Public,24 hours daily,,,,,2,2,,,ChargePoint Network,http://www.chargepoint.com/,200-9,47.733788,-122.146893,2018-11-19,38976,2018-11-19 10:08:37 UTC,,,,,,,,,J1772 NEMA520,US,,,,Public,,public,,
ELEC,PUBLIC STATIONS,5973 Executive Dr,PINNACLE HEALTH; Pinnacle Health & Fitness,Fitchburg,WI,53719,,888-758-4389,E,,Public,24 hours daily,,,,,1,1,,,ChargePoint Network,http://www.chargepoint.com/,GPS,43.0114059,-89.4590683,2018-11-19,38978,2018-11-19 10:08:37 UTC,,,,,,,,,J1772 NEMA520,US,,,,Public,,public,,
ELEC,EDISONPARKFAST,50 W 44th St,"LOC #100 LEVEL3; Located in basement level of Hippodrome Garage, Edison ParkFast
LOT#100 C",New York,NY,10036,,888-758-4389,E,,Public,24 hours daily,,,,,1,1,1,,ChargePoint Network,http://www.chargepoint.com/,200-8,40.755546,-73.982307,2018-11-19,38981,2018-11-19 10:08:37 UTC,,,,,,,,,CHADEMO J1772 NEMA520,US,,,,Public,,public,,
ELEC,PIE AE,900 Barton Springs Rd,"PALMER STATION8; 3rd Floor
PALMER STATION9; 3rd Floor",Austin,TX,78704,,888-758-4389,E,,Public,24 hours daily,,,,,2,2,,,ChargePoint Network,http://www.chargepoint.com/,200-9,30.260241,-97.753823,2018-11-19,38997,2018-11-19 10:08:37 UTC,,,,,,,,,J1772 NEMA520,US,,,,Public,,public,,
ELEC,PIE AE,2100 Barton Spring RD,"ZILKER PARK PH1; Located in parking lot next to Zilker theater
ZILKER PARK PH2; Located in parking lot next to Zilker Theater",Austin,TX,78704,,888-758-4389,E,,Public,24 hours daily,,,,,2,2,,,ChargePoint Network,http://www.chargepoint.com/,200-8,30.254424,-97.781461,2018-11-19,38998,2018-11-19 10:08:37 UTC,,,,,,,,,J1772 NEMA520,US,,,,Public,,public,,
ELEC,LONE STAR FOOD,E Hwy 82,2920 HWY 75; Located at SW corner of HWY 75 and 82,Sherman,TX,75092,,888-758-4389,E,,Public,24 hours daily,,,,,1,1,,,ChargePoint Network,http://www.chargepoint.com/,GPS,33.6697807,-96.611702,2018-11-19,38999,2018-11-19 10:08:37 UTC,,,,,,,,,J1772 NEMA520,US,,,,Public,,public,,
ELEC,Kwik Trip #330,104 Aspen Ln,,Belle Plaine,MN,56011,,952-873-2644,E,,Public,24 hours daily,,,,,1,,,,,,200-8,44.62302,-93.756478,2017-06-02,39602,2018-03-06 00:58:53 UTC,P,,,2011-05-15,,,,,NEMA520,US,,,,Public,,public,,
ELEC,Kwik Trip #481,4820 Highway 61 W,Located off of Hwy 61,Red Wing,MN,55066,,651-388-7936,E,,Public,24 hours daily,,,,,1,,,,,,200-9,44.567726,-92.624863,2017-06-02,39603,2018-11-12 21:41:27 UTC,P,,,2011-05-15,,,,,NEMA520,US,,,,Public,,public,,
ELEC,Kwik Trip #492,8921 Crossroads Blvd,Intersection of Lyman Blvd and Crossroads Blvd,Chanhassen,MN,55317,,952-937-6915,E,,Public,24 hours daily,,,,,1,,,,,,GPS,44.842694,-93.53986,2017-06-02,39604,2018-11-12 21:41:41 UTC,P,,,2011-05-15,,,,,NEMA520,US,,,,Public,,public,,
ELEC,Kwik Trip #615,1740 Commerce Dr,,North Mankato,MN,56003,,507-388-2410,E,,Public,24 hours daily,,,,,1,,,,,,200-9,44.17948,-94.036719,2017-06-02,39605,2018-11-12 21:53:08 UTC,P,,,2011-05-15,,,,,NEMA520,US,,,,Public,,public,,
ELEC,Kwik Trip #466,1305 S Minnesota Ave,,St. Peter,MN,56082,,507-934-3030,E,,Public,24 hours daily,,,,,1,,,,,,200-9,44.314819,-93.963999,2017-09-06,39606,2018-11-12 21:40:51 UTC,P,,,2011-05-15,,,,,NEMA520,US,,,,Public,,public,,
ELEC,Kwik Trip #812,1756 Bunker Lake Blvd NW,Intersection of Bunker Lake Blvd NW and Jay St,Andover,MN,55304,,763-757-4905,E,,Public,24 hours daily,,,,,1,,,,,,200-9,45.218899,-93.310669,2017-06-02,39607,2018-11-12 22:01:29 UTC,P,,,2011-05-15,,,,,NEMA520,US,,,,Public,,public,,
ELEC,Shell - YESS! Convenience 4U,328 Rives Rd,I-95 exit 47,Petersburg,VA,23805,,804-733-8848,E,,Public,24 hours daily,,,,,4,,,,,,200-9,37.175139,-77.352948,2017-12-05,39770,2018-03-06 01:28:34 UTC,P,,,2011-04-15,,,,,NEMA520,US,,,,Public,,public,,
ELEC,CARCHARGING,16015 Cleveland St,"RED 160; Second Parking Garage in East Building, Level P1 ",Redmond,WA,98052,,888-758-4389,E,,Public,24 hours daily,,,,,1,1,,,ChargePoint Network,http://www.chargepoint.com/,GPS,47.6743736,-122.1271667,2018-11-19,39790,2018-11-19 10:08:37 UTC,,,,,,,,,J1772 NEMA520,US,,,,Public,,public,,
ELEC,Municipal Garage,200 N Holliday St,,Baltimore,MD,21202,,443-573-2800,E,,Public,24 hours daily,,,,,1,2,,,,,200-9,39.291785,-76.610539,2018-11-08,40012,2018-11-08 16:06:54 UTC,LG,,,2011-08-15,,,,,J1772 NEMA520,US,,,,Public,,public,,
ELEC,MTA,Amtrak Way,"MARC BWI 1; Level 1 garage 1 BWI Amtrak station
MARC BWI 2; Garage 1 Level 1 BWI Amtrak station
MARC BWI 3; Garage 1 Level 1 BWI Amtrak Station
MARC BWI 4; Garage 1 Level 1 BWI Amtrak Station
MARC BWI 5; Level 1 of BWI Amtrak garage 1",Linthicum Heights,MD,21090,,888-758-4389,E,,Public,24 hours daily,,,,,5,5,,,ChargePoint Network,http://www.chargepoint.com/,GPS,39.1927299,-76.6939316,2018-11-19,40028,2018-11-19 10:08:37 UTC,,,,,,,,,J1772 NEMA520,US,,,,Public,,public,,
ELEC,MTA,8476-8484 Honeygo Blvd,"BUS W. MARSH 1; Park and Ride lot in the spaces closest to the street
BUS W. MARSH 2; Park and Ride lot in spaces closest to the street
BUS W. MARSH 3; White Marsh park and ride lot spaces closest to street
BUS W. MARSH 4; White Marsh park and ride lot spaces closest to street
BUS W. MARSH 5; White Marsh park and ride lot spaces closest to street",Nottingham,MD,21236,,888-758-4389,E,,Public,24 hours daily,,,,,1,5,,,ChargePoint Network,http://www.chargepoint.com/,200-8,39.376897,-76.460451,2018-11-19,40040,2018-11-19 10:08:37 UTC,,,,,,,,,J1772 NEMA520,US,,,,Public,,public,,
ELEC,RAMSEY COUNTY,2180 Hamline Ave N,RV LIBRARY; -,Roseville,MN,55113,,888-758-4389,E,,Public,24 hours daily,,,,,1,1,,,ChargePoint Network,http://www.chargepoint.com/,GPS,45.0070534,-93.1564102,2018-11-19,40043,2018-11-19 10:08:37 UTC,,,,,,,,,J1772 NEMA520,US,,,,Public,,public,,
ELEC,CITY OF ST PAUL,1360 Lexington Pkwy N,"COMO PARK 1; Como Park @ 1360 North Lexington Parkway
COMO PARK 2; Como Park  @ 1360 North Lexington Parkway",St Paul,MN,55117,,888-758-4389,E,,Public,24 hours daily,,,,,2,2,,,ChargePoint Network,http://www.chargepoint.com/,200-8,44.98303,-93.145304,2018-11-19,40044,2018-11-19 10:08:37 UTC,,,,,,,,,J1772 NEMA520,US,,,,Public,,public,,
ELEC,Lawson Parking Ramp,10 W 6th St,,St. Paul,MN,55102,,651-224-1931,E,,Public,24 hours daily; pay lot,,,,,4,4,,,,,200-8,44.946327,-93.095535,2018-03-08,40046,2018-03-08 17:27:07 UTC,LG,,,2011-10-17,,,,,J1772 NEMA520,US,,,,Public,,public,,
ELEC,Lower Town Parking Ramp,316 Jackson St,,St. Paul,MN,55101,,651-291-0523,E,,Public,24 hours daily,,,,,2,2,,,,,GPS,44.947042,-93.088226,2018-03-08,40047,2018-03-08 17:27:07 UTC,LG,,,2011-10-17,,,,,J1772 NEMA520,US,,,,Public,,public,,
ELEC,HENNEPIN COUNTY,300 Nicollet Mall,"CENTRAL LIBRARY; Level 1 of Ramp, Use 4th St. Entrance",Minneapolis,MN,55402,,888-758-4389,E,,Public,24 hours daily,,,,,1,1,,,ChargePoint Network,http://www.chargepoint.com/,GPS,44.980114,-93.270256,2018-11-19,40052,2018-11-19 10:08:37 UTC,,,,,,,,,J1772 NEMA520,US,,,,Public,,public,,
ELEC,RAMSEY COUNTY,240 Kellogg Blvd E,"UNION DEPOT B 1; Enter parking garage from Sibley or Kellogg.  Station located near entrance to depot building. Regular parking rates apply.
UNION DEPOT B 2; Enter parking garage from Sibley or Kellogg.  Station located near entrance to depot building. Regular parking rates apply.",St Paul,MN,55101,,888-758-4389,E,,Public,24 hours daily,,,,,2,2,,,ChargePoint Network,http://www.chargepoint.com/,200-9,44.947349,-93.084458,2018-11-19,40054,2018-11-19 10:08:37 UTC,,,,,,,,,J1772 NEMA520,US,,,,Public,,public,,
ELEC,CITY OF ST PAUL,175 Kellogg Blvd W,"RIVERCENTRE #1; Located adjacent to Manager’s office on street level
RIVERCENTRE #2; Located adjacent to Manager’s office on street level.",St Paul,MN,55102,,888-758-4389,E,,Public,24 hours daily,,,,,2,2,,,ChargePoint Network,http://www.chargepoint.com/,200-9,44.944843,-93.101068,2018-11-19,40055,2018-11-19 10:08:37 UTC,,,,,,,,,J1772 NEMA520,US,,,,Public,,public,,
ELEC,CITY OF ST PAUL,145 N Smith Ave,"SMITH RAMP #1; Smith Ave Ramp - City of Saint Paul
SMITH RAMP #2; Smith Ave Ramp - City of Saint Paul
SMITH RAMP #3; Level 2 spaces 3&amp;4 (south side, east end)",St Paul,MN,55102,,888-758-4389,E,,Public,24 hours daily,,,,,2,4,,,ChargePoint Network,http://www.chargepoint.com/,200-8,44.945369,-93.104162,2018-11-19,40058,2018-11-19 10:08:37 UTC,,,,,,,,,J1772 NEMA520,US,,,,Public,,public,,
ELEC,CITY OF ST PAUL,1600 University Ave W,SPRUCE TREE; City of Saint Paul: Spruce Tree Ramp,St Paul,MN,55104,,888-758-4389,E,,Public,24 hours daily,,,,,1,1,,,ChargePoint Network,http://www.chargepoint.com/,GPS,44.9553528,-93.1683197,2018-11-19,40059,2018-11-19 10:08:37 UTC,,,,,,,,,J1772 NEMA520,US,,,,Public,,public,,
ELEC,World Trade Center Parking Ramp,477 Cedar St,,St. Paul,MN,55101,,651-224-8838,E,,Public - Card key at all times,24 hours daily; monthly contracted parking customers only,,,,,2,2,,,,,GPS,44.948972,-93.0962,2017-10-03,40063,2018-03-16 19:17:32 UTC,LG,,,2011-10-17,,,,,J1772 NEMA520,US,,,,Public - Carte-clé en tout temps,,public,KEY_ALWAYS,
ELEC,BCC PARAMUS NJ,Odabash Way,"BCC001; In the A parking lot.
BCC002; In parking lot A",Paramus,NJ,07652,,888-758-4389,E,,Public,24 hours daily,,,,,2,2,,,ChargePoint Network,http://www.chargepoint.com/,GPS,40.9500961,-74.0917053,2018-11-19,40365,2018-11-19 10:08:37 UTC,,,,,,,,,J1772 NEMA520,US,,,,Public,,public,,
ELEC,LOUDOUN COUNTY,E Colonial Hwy,"SCOTT JENKINS1
SCOTT JENKINS2
SCOTT JENKINS3
SCOTT JENKINS4
SCOTT JENKINS5",Hamilton,VA,20158,,888-758-4389,E,,Public,24 hours daily,,,,,5,5,,,ChargePoint Network,http://www.chargepoint.com/,GPS,39.1360054,-77.636795,2018-11-19,40381,2018-11-19 10:08:37 UTC,,,,,,,,,J1772 NEMA520,US,,,,Public,,public,,
ELEC,KRC SKYLINE,10900 NE 4th St,"SKYLINE #1; From 110th, P1 of garage on right as you enter garage
SKYLINE #2; From 110th, P1 of Garage on right as you enter garage
SKYLINE #3; From 110th, P1 of garage on right as you enter garage",Bellevue,WA,98004,,888-758-4389,E,,Public,24 hours daily,,,,,3,3,,,ChargePoint Network,http://www.chargepoint.com/,200-9,47.614105,-122.194486,2018-11-19,40384,2018-11-19 10:08:37 UTC,,,,,,,,,J1772 NEMA520,US,,,,Public,,public,,
ELEC,PUBLIC STATIONS,1726 Eagan Rd,"PRINCETON CLUB; North of Front Door, next to handicap stall",Madison,WI,53704,,888-758-4389,E,,Public,24 hours daily,,,,,1,1,,,ChargePoint Network,http://www.chargepoint.com/,GPS,43.1220703,-89.3093491,2018-11-19,40389,2018-11-19 10:08:37 UTC,,,,,,,,,J1772 NEMA520,US,,,,Public,,public,,
ELEC,PUBLIC STATIONS,7428 Terrace Avenue,"MIDDLETON EAST; General Public Parking 
MIDDLETON WEST; Parking lot behind library ADA ",Middleton,WI,53562,,888-758-4389,E,,Public,24 hours daily,,,,,1,3,,,ChargePoint Network,http://www.chargepoint.com/,200-9,43.094571,-89.509779,2018-11-19,40390,2018-11-19 10:08:37 UTC,,,,,,,,,J1772 NEMA520,US,,,,Public,,public,,
ELEC,CENTURY PARK,2029 Century Park E,"2029 EV BAY 1; Enter garage and proceed to P1 and follow signs
2029 EV BAY 2; Enter Garage and proceed to P1
2029 EV BAY 3; -
2029 EV BAY 4; -
2029 EV BAY 5; Enter garage and proceed to P1 and follow signs
2029 EV BAY 6; -
2029 EV BAY 7-8; The station is located on level P1
2029 EV BAY 9; -",Los Angeles,CA,90067,,888-758-4389,E,,Public,24 hours daily,,,,,1,9,,,ChargePoint Network,http://www.chargepoint.com/,200-8,34.059587,-118.413279,2018-11-19,40397,2018-11-19 10:08:37 UTC,,,,,,,,,J1772 NEMA520,US,,,,Public,,public,,
ELEC,CENTURY PARK,2049 Century Park E,"2049 EV BAY 1; Enter garage and proceed to P1 and follow signs
2049 EV BAY 2; Enter garage and proceed to P1 and follow signs
2049 EV BAY 3; Enter garage and proceed to P1 and follow signs
2049 EV BAY 4; -
2049 EV BAY 5; Enter garage and proceed to P1 and follow signs
2049 EV BAY 6; -
2049 EV BAY 7-8; The station is located on level P1
2049 EV BAY 9; -",Los Angeles,CA,90067,,888-758-4389,E,,Public,24 hours daily,,,,,1,9,,,ChargePoint Network,http://www.chargepoint.com/,200-9,34.058659,-118.412867,2018-11-19,40398,2018-11-19 10:08:37 UTC,,,,,,,,,J1772 NEMA520,US,,,,Public,,public,,
ELEC,CENTURY PARK,2000 Avenue of the Stars,"AOS EV BAY 2-1; Stations are on P1 near the 2000 AOS Escalator.
AOS EV BAY 3; Enter garage and proceed to P1 and follow signs.
AOS EV BAY 4; Enter garage and proceed to P1 and follow signs.
AOS EV BAY 5; -
AOS EV BAY 6; Enter garage and proceed to P1 and follow signs.
AOS EV BAY 7; -
AOS EV BAY 9-8; -",Los Angeles,CA,90067,,888-758-4389,E,,Public,24 hours daily,,,,,1,9,,,ChargePoint Network,http://www.chargepoint.com/,200-8,34.058931,-118.415809,2018-11-19,40399,2018-11-19 10:08:37 UTC,,,,,,,,,J1772 NEMA520,US,,,,Public,,public,,
ELEC,MARTINEZ CA,525 Henrietta St,CITY HALL; -,Martinez,CA,94553,,888-758-4389,E,,Public,24 hours daily,,,,,1,1,,,ChargePoint Network,http://www.chargepoint.com/,GPS,38.0138817,-122.1348572,2018-11-19,40402,2018-11-19 10:08:37 UTC,,,,,,,,,J1772 NEMA520,US,,,,Public,,public,,
ELEC,INN MARIN,250 Entrada Dr,WELCOME,Novato,CA,94949,,888-758-4389,E,,Public,24 hours daily,,,,,1,1,,,ChargePoint Network,http://www.chargepoint.com/,GPS,38.0703812,-122.5402985,2018-11-19,40403,2018-11-19 10:08:37 UTC,,,,,,,,,J1772 NEMA520,US,,,,Public,,public,,
ELEC,Smart Center San Diego,4750 Kearny Mesa Rd,Co-located with Mercedes-Benz dealership,San Diego,CA,92111,,858-569-6900,E,,Public,Dealership business hours; customer use only,,,,,1,1,,,,,GPS,32.82408524,-117.1471252,2018-05-03,40407,2018-05-03 14:44:18 UTC,P,,,2011-05-15,,,,,J1772 NEMA520,US,,,,Public,,public,,
ELEC,CARCHARGING,10 Burnell Blvd,"YANKEE DOODLE; Yankee Doodle Garage, first floor near Handicapped spaces",Norwalk,CT,06850,,888-758-4389,E,,Public,24 hours daily,,,,,1,1,,,ChargePoint Network,http://www.chargepoint.com/,GPS,41.1180305,-73.4149323,2018-11-19,40417,2018-11-19 10:08:37 UTC,,,,,,,,,J1772 NEMA520,US,,,,Public,,public,,
ELEC,GIVE KIDS THE,210 S Bass Rd,"WORLD VILLAGE 1; Between first two spaces to right of greeting services
WORLD VILLAGE 2; Parking to Left of Greeting Services entrance",Kissimmee,FL,34746,,888-758-4389,E,,Public,24 hours daily,,,,,2,2,,,ChargePoint Network,http://www.chargepoint.com/,200-9,28.284597,-81.458295,2018-11-19,40425,2018-11-19 10:08:37 UTC,,,,,,,,,J1772 NEMA520,US,,,,Public,,public,,
ELEC,LEESBURG FL,161-299 N 4th St,CITY HALL 01; Parking Lot located in space beside generator.,Leesburg,FL,34748,,888-758-4389,E,,Public,24 hours daily,,,,,1,1,,,ChargePoint Network,http://www.chargepoint.com/,GPS,28.8121128,-81.8771439,2018-11-19,40426,2018-11-19 10:08:37 UTC,,,,,,,,,J1772 NEMA520,US,,,,Public,,public,,
ELEC,LEESBURG FL,153-199 N Palmetto St,LIBRARY 01; Last space before entrance to parking garage near generator,Leesburg,FL,34748,,888-758-4389,E,,Public,24 hours daily,,,,,1,1,,,ChargePoint Network,http://www.chargepoint.com/,GPS,28.8117085,-81.8751907,2018-11-19,40427,2018-11-19 10:08:37 UTC,,,,,,,,,J1772 NEMA520,US,,,,Public,,public,,
ELEC,WEKIVA ISLAND,1014 Miami Springs Dr,WI UNIT 01; First space on right when entering parking lot,Longwood,FL,32779,,888-758-4389,E,,Public,24 hours daily,,,,,1,1,,,ChargePoint Network,http://www.chargepoint.com/,GPS,28.7132969,-81.444603,2018-11-19,40428,2018-11-19 10:08:37 UTC,,,,,,,,,J1772 NEMA520,US,,,,Public,,public,,
ELEC,UNITEDMETHODIST,805  W Middle Street,CHELSEA #1,Chelsea,MI,48118,,888-758-4389,E,,Public,24 hours daily,,,,,1,1,,,ChargePoint Network,http://www.chargepoint.com/,GPS,42.3146744,-84.0359039,2018-11-19,40440,2018-11-19 10:08:37 UTC,,,,,,,,,J1772 NEMA520,US,,,,Public,,public,,
ELEC,UNITEDMETHODIST,411 Cedars Lane,DEXTER #1; -,Dexter,MI,48130,,888-758-4389,E,,Public,24 hours daily,,,,,1,1,,,ChargePoint Network,http://www.chargepoint.com/,GPS,42.3409743,-83.8994497,2018-11-19,40443,2018-11-19 10:08:37 UTC,,,,,,,,,J1772 NEMA520,US,,,,Public,,public,,
ELEC,HOLLAND BPW,127  E 8th St,127 E 8TH ST,Holland,MI,49423,,888-758-4389,E,,Public,24 hours daily,,,,,1,1,,,ChargePoint Network,http://www.chargepoint.com/,GPS,42.7903404,-86.1014938,2018-11-19,40444,2018-11-19 10:08:37 UTC,,,,,,,,,J1772 NEMA520,US,,,,Public,,public,,
ELEC,KALAMAZOO RAMP3,134-156 Portage St,PORTAGE ST#1,Kalamazoo,MI,49007,,888-758-4389,E,,Public,24 hours daily,,,,,1,1,,,ChargePoint Network,http://www.chargepoint.com/,GPS,42.2913094,-85.5814362,2018-11-19,40447,2018-11-19 10:08:37 UTC,,,,,,,,,J1772 NEMA520,US,,,,Public,,public,,
ELEC,FOURTH COAST,816 South Westnedge Ave.,EV STATION #1,Kalamazoo,MI,49001,,888-758-4389,E,,Public,24 hours daily,,,,,1,1,,,ChargePoint Network,http://www.chargepoint.com/,GPS,42.2835312,-85.5895004,2018-11-19,40448,2018-11-19 10:08:37 UTC,,,,,,,,,J1772 NEMA520,US,,,,Public,,public,,
ELEC,CONSUMERSENERGY,530 Willow St,"LAN #1 - NORTH; -
LAN #2 - SOUTH; -",Lansing,MI,48906,,888-758-4389,E,,Public,24 hours daily,,,,,1,3,,,ChargePoint Network,http://www.chargepoint.com/,200-9,42.749089,-84.560471,2018-11-19,40451,2018-11-19 10:08:37 UTC,,,,,,,,,J1772 NEMA520,US,,,,Public,,public,,
ELEC,CITY OF LOWELL,204 E Main,204 E MAIN,Lowell,MI,49331,,888-758-4389,E,,Public,24 hours daily,,,,,1,1,,,ChargePoint Network,http://www.chargepoint.com/,GPS,42.9339523,-85.3374939,2018-11-19,40452,2018-11-19 10:08:37 UTC,,,,,,,,,J1772 NEMA520,US,,,,Public,,public,,
ELEC,MONROE CCC,1555 S Raisinville Rd,"STATION #1
STATION #2",Monroe,MI,48161,,888-758-4389,E,,Public,24 hours daily,,,,,2,2,,,ChargePoint Network,http://www.chargepoint.com/,200-9,41.918043,-83.468264,2018-11-19,40453,2018-11-19 10:08:37 UTC,,,,,,,,,J1772 NEMA520,US,,,,Public,,public,,
ELEC,CONSUMERSENERGY,4600 Coolidge Hwy,ROY #1; -,Royal Oak,MI,48073,,888-758-4389,E,,Public,24 hours daily,,,,,1,1,,,ChargePoint Network,http://www.chargepoint.com/,GPS,42.5295181,-83.1834869,2018-11-19,40454,2018-11-19 10:08:37 UTC,,,,,,,,,J1772 NEMA520,US,,,,Public,,public,,
ELEC,DETROIT JATC,2277 E 11 Mile Rd,CHARGE STATION,Warren,MI,48092,,888-758-4389,E,,Public,24 hours daily,,,,,1,1,,,ChargePoint Network,http://www.chargepoint.com/,GPS,42.4919434,-83.0796967,2018-11-19,40455,2018-11-19 10:08:37 UTC,,,,,,,,,J1772 NEMA520,US,,,,Public,,public,,
ELEC,CITY OF ZEELAND,10 N Church St,NORTH PARKING,Zeeland,MI,49464,,888-758-4389,E,,Public,24 hours daily,,,,,1,1,,,ChargePoint Network,http://www.chargepoint.com/,GPS,42.813076,-86.0152817,2018-11-19,40456,2018-11-19 10:08:37 UTC,,,,,,,,,J1772 NEMA520,US,,,,Public,,public,,
ELEC,CITY OF ZEELAND,410 E Main Ave,RECREATION CTR,Zeeland,MI,49464,,888-758-4389,E,,Public,24 hours daily,,,,,1,1,,,ChargePoint Network,http://www.chargepoint.com/,GPS,42.8121758,-86.0089874,2018-11-19,40457,2018-11-19 10:08:37 UTC,,,,,,,,,J1772 NEMA520,US,,,,Public,,public,,
ELEC,CITY OF ZEELAND,112-198 E Cherry St,SOUTH PARKING,Zeeland,MI,49464,,888-758-4389,E,,Public,24 hours daily,,,,,1,1,,,ChargePoint Network,http://www.chargepoint.com/,GPS,42.8114777,-86.0149918,2018-11-19,40458,2018-11-19 10:08:37 UTC,,,,,,,,,J1772 NEMA520,US,,,,Public,,public,,
ELEC,3M Customer Innovation Center,2350 Minnehaha Ave E,"10th Carlton & McKnight, Building 278",Maplewood,MN,55119,,651-223-9568,E,,Public,24 hours daily,,,,,1,1,,,,,GPS,44.96232,-93.0005,2017-09-06,40459,2018-03-30 20:06:05 UTC,P,,,2011-05-15,,,,,J1772 NEMA520,US,,,,Public,,public,,
ELEC,BOULEVARD,2501 Southwest Boulevard,MAIN ENTRANCE; Charging Station located across from main entrance,Kansas City,MO,64108,,888-758-4389,E,,Public,24 hours daily,,,,,1,1,,,ChargePoint Network,http://www.chargepoint.com/,GPS,39.081871,-94.5962906,2018-11-19,40460,2018-11-19 10:08:37 UTC,,,,,,,,,J1772 NEMA520,US,,,,Public,,public,,
ELEC,Victor Building Parking Garage,750 9th St NW,Located on the first level,Washington,DC,20001,,202-638-0253,E,,Public,24 hours daily; pay lot,,,,,1,1,,,,,200-9,38.899392,-77.024385,2018-10-04,40593,2018-10-04 21:43:30 UTC,P,,,2011-05-31,,,,,J1772 NEMA515,US,,,,Public,,public,,
ELEC,Annapolis Friends Meeting,351 Dubois Ave,"Turn at Catholic Church on Bestgate, go to end. For more information, see http://aprs.org/AFM-environment.html",Annapolis,MD,21401,,410-293-6417,E,,Public,8am-10pm daily; for church members or those in need of a charge,,,,,1,1,,,,,200-9,39.001676,-76.525253,2018-08-07,40689,2018-08-07 22:32:24 UTC,P,,,2011-08-10,,,,,J1772 NEMA520,US,,,,Public,,public,,
ELEC,Holiday Inn Express - Albany Downtown,300 Broadway,Just before I-787 ramp,Albany,NY,12207,,518-434-4111,E,,Public,24 hours daily,,,,,2,2,,,,,200-9,42.645487,-73.750451,2017-04-06,40693,2018-03-06 01:15:20 UTC,P,,,2011-08-15,,,,,J1772 NEMA520,US,,,,Public,,public,,
ELEC,City of Raleigh - City Center Deck,429 S Wilmington St,1st floor of parking deck,Raleigh,NC,27601,,919-996-3030,E,,Public,24 hours daily; pay lot,,,,,1,1,,,,,200-9,35.774619,-78.637705,2017-11-02,40744,2018-06-13 22:08:34 UTC,LG,,,2011-07-17,,,,,J1772 NEMA520,US,,,,Public,,public,,
ELEC,Marriott Hotel Underground Deck,1 E Lenoir St,1st floor of parking deck,Raleigh,NC,27601,,919-996-3030,E,,Public,24 hours daily; pay lot,,,,,1,2,,,,,200-8,35.772881,-78.638502,2017-11-02,40745,2018-03-06 01:25:01 UTC,LG,,,2011-07-17,,,,,J1772 NEMA520,US,,,,Public,,public,,
ELEC,City of Raleigh - Performing Arts Center Deck,128 W South St,P2 Level of Parking Deck,Raleigh,NC,27601,,919-996-3030,E,,Public,24 hours daily; pay lot,,,,,1,1,,,,,200-9,35.772619,-78.641492,2017-11-02,40747,2018-03-06 01:00:47 UTC,LG,,,2011-07-17,,,,,J1772 NEMA520,US,,,,Public,,public,,
ELEC,City of Raleigh - Wilmington Station Deck,115 S Wilmington St,1st floor of parking deck,Raleigh,NC,27601,,919-996-3030,E,,Public,24 hours daily; pay lot,,,,,1,1,,,,,200-8,35.77937,-78.638203,2017-11-02,40751,2018-03-06 01:31:52 UTC,LG,,,2011-07-17,,,,,J1772 NEMA520,US,,,,Public,,public,,
ELEC,Southern Oregon University - Lot 8,401 Stadium St,,Ashland,OR,97520,,541-552-7275,E,,Public,24 hours daily; parking permit required,,,,,2,3,,,,,200-8,42.187149,-122.689496,2018-04-03,40752,2018-04-03 18:22:40 UTC,SG,,,2011-08-01,,,,,J1772 NEMA520,US,,,,Public,,public,,
ELEC,Easystreet Inc,9705 SW Sunshine Ct,,Beaverton,OR,97005,,503-646-8400,E,,Public - Call ahead,8am-5pm daily; Employee and customer use only,,,,,1,1,,,,,200-8,45.475964,-122.777052,2018-04-03,40775,2018-04-03 18:22:40 UTC,P,,,2012-03-31,,,,,J1772 NEMA515,US,,,,Public - Appeler à l'avance,,public,CALL,
ELEC,Clackamas County Sheriff's Office - Brooks Building,9101 SE Sunnybrook Blvd,,Clackamas,OR,97015,,503-785-5000,E,,Public,8am-5pm daily,,,,,1,1,,,,,200-9,45.430275,-122.570132,2018-04-03,40777,2018-04-03 18:22:40 UTC,P,,,2011-03-01,,,,,J1772 NEMA515,US,,,,Public,,public,,
ELEC,Jim Ellis Chevrolet,5900 Peachtree Industrial Blvd,"South of I-285 on west side of Peachtree Industrial Blvd, located near the sales department",Atlanta,GA,30341,,770-936-5523,E,,Public - Call ahead,9am-8pm M-Sat; for Volt use only,,,,,6,6,,,,,GPS,33.90999,-84.2914,2018-10-04,40790,2018-10-04 21:43:30 UTC,P,,,2011-07-27,,,,,J1772 NEMA515,US,,,,Public - Appeler à l'avance,,public,CALL,
ELEC,WATERFORD GROUP,70 Constitution Ave,"COURTYARD 1
COURTYARD 2",Concord,NH,03301,,888-758-4389,E,,Public,24 hours daily,,,,,2,2,,,ChargePoint Network,http://www.chargepoint.com/,200-8,43.217311,-71.53656,2018-11-19,40840,2018-11-19 10:08:37 UTC,,,,,,,,,J1772 NEMA520,US,,,,Public,,public,,
ELEC,METRO NASHVILLE,205 Rivergate Parkway,LIBRARY 2; in main parking lot of new Goodlettsville Library,Goodlettsville,TN,37072,,888-758-4389,E,,Public,24 hours daily,,,,,1,1,,,ChargePoint Network,http://www.chargepoint.com/,GPS,36.314373,-86.7107315,2018-11-19,40850,2018-11-19 10:08:37 UTC,,,,,,,,,J1772 NEMA520,US,,,,Public,,public,,
ELEC,SHERWOOD,NW Washington St,CANNERY #1; Sherwood Cannery On Washington Street,Sherwood,OR,97140,,888-758-4389,E,,Public,24 hours daily,,,,,1,1,,,ChargePoint Network,http://www.chargepoint.com/,GPS,45.3553543,-122.840126,2018-11-19,40904,2018-11-19 10:08:37 UTC,,,,,,,,,J1772 NEMA520,US,,,,Public,,public,,
ELEC,SHERWOOD,15665 SW Willamette St,CANNERY #2; Sherwood Cannery at Coulmbia street,Sherwood,OR,97140,,888-758-4389,E,,Public,24 hours daily,,,,,1,1,,,ChargePoint Network,http://www.chargepoint.com/,GPS,45.3563194,-122.8388367,2018-11-19,40905,2018-11-19 10:08:37 UTC,,,,,,,,,J1772 NEMA520,US,,,,Public,,public,,
ELEC,ENTERGY,650 N Garland Ave,UA FAYETTVILLE1; -,Fayetteville,AR,72701,,888-758-4389,E,,Public,24 hours daily,,,,,1,1,,,ChargePoint Network,http://www.chargepoint.com/,GPS,36.0729332,-94.1751328,2018-11-19,40966,2018-11-19 10:08:37 UTC,,,,,,,,,J1772 NEMA520,US,,,,Public,,public,,
ELEC,ENTERGY,1046 President Clinton Ave,"CLINTON FOUND1; in parking lot next to library, electrical cabinet outside ",Little Rock,AR,72201,,888-758-4389,E,,Public,24 hours daily,,,,,1,1,,,ChargePoint Network,http://www.chargepoint.com/,GPS,34.7467308,-92.2601013,2018-11-19,40967,2018-11-19 10:08:37 UTC,,,,,,,,,J1772 NEMA520,US,,,,Public,,public,,
ELEC,CARCHARGING,200 SW 1st Avenue,"AUTO NATION BDG; Enter on SW 2nd Street, take ticket,  P-1 Level, Space 1-47",Fort Lauderdale,FL,33301,,888-758-4389,E,,Public,24 hours daily,,,,,1,1,,,ChargePoint Network,http://www.chargepoint.com/,GPS,26.1202393,-80.1443329,2018-11-19,40976,2018-11-19 10:08:37 UTC,,,,,,,,,J1772 NEMA520,US,,,,Public,,public,,
ELEC,HYATT GRAND,1 Grand Cypress Blvd,"CYPRESS UNIT 01; White Horse Parking Lot
CYPRESS UNIT 02; White Horse Parking Lot",Orlando,FL,32836,,888-758-4389,E,,Public,24 hours daily,,,,,2,2,,,ChargePoint Network,http://www.chargepoint.com/,200-8,28.38175,-81.508674,2018-11-19,40980,2018-11-19 10:08:37 UTC,,,,,,,,,J1772 NEMA520,US,,,,Public,,public,,
ELEC,AUTO CLUB GROUP,1515 N Westshore Blvd,"ACS 001; Left of Entrance. Available 6:30a to 8:00p
ACS 002; Left of Entrance. Available 8:30a to 6:00pm",Tampa,FL,33607,,888-758-4389,E,,Public,24 hours daily,,,,,2,2,,,ChargePoint Network,http://www.chargepoint.com/,200-9,27.956473,-82.523052,2018-11-19,40986,2018-11-19 10:08:37 UTC,,,,,,,,,J1772 NEMA520,US,,,,Public,,public,,
ELEC,WINTER GARDEN,300 W Plant St,CITY HALL 01; Southeast side of City Hall,Winter Garden,FL,34787,,888-758-4389,E,,Public,24 hours daily,,,,,1,1,,,ChargePoint Network,http://www.chargepoint.com/,GPS,28.5641651,-81.5890503,2018-11-19,40990,2018-11-19 10:08:37 UTC,,,,,,,,,J1772 NEMA520,US,,,,Public,,public,,
ELEC,WINTER GARDEN,771 N Lakeview Ave,NEWTON PARK 01; Northwest side of Tanner Hall,Winter Garden,FL,34787,,888-758-4389,E,,Public,24 hours daily,,,,,1,1,,,ChargePoint Network,http://www.chargepoint.com/,GPS,28.5762253,-81.588356,2018-11-19,40991,2018-11-19 10:08:37 UTC,,,,,,,,,J1772 NEMA520,US,,,,Public,,public,,
ELEC,PALMER-ELECTRIC,875 Jackson Ave,PALMER HQ 01; Main Parking Lot,Winter Park,FL,32789,,888-758-4389,E,,Public,24 hours daily,,,,,1,1,,,ChargePoint Network,http://www.chargepoint.com/,GPS,28.5905247,-81.3708954,2018-11-19,40992,2018-11-19 10:08:37 UTC,,,,,,,,,J1772 NEMA520,US,,,,Public,,public,,
ELEC,AUTO CLUB GROUP,32000 U.S. 19,PALM HARBOR 01; Left side of parking lot.,Palm Harbor,FL,34684,,888-758-4389,E,,Public,24 hours daily,,,,,1,1,,,ChargePoint Network,http://www.chargepoint.com/,GPS,28.0628777,-82.7394714,2018-11-19,40994,2018-11-19 10:08:37 UTC,,,,,,,,,J1772 NEMA520,US,,,,Public,,public,,
ELEC,SOLDIER FIELD,1448-1468 Museum Campus Dr,LEVEL 3 UNIT1; Soldier Field:  North Garage Level 3 ,Chicago,IL,60605,,888-758-4389,E,,Public,24 hours daily,,,,,1,1,,,ChargePoint Network,http://www.chargepoint.com/,GPS,41.8638,-87.6157227,2018-11-19,41000,2018-11-19 10:08:37 UTC,,,,,,,,,J1772 NEMA520,US,,,,Public,,public,,
ELEC,SOLDIER FIELD,448-462 E McFetridge Dr,LEVEL 4 UNIT1; Soldier Field: North Garage Level 4,Chicago,IL,60605,,888-758-4389,E,,Public,24 hours daily,,,,,1,1,,,ChargePoint Network,http://www.chargepoint.com/,GPS,41.864151,-87.6165848,2018-11-19,41001,2018-11-19 10:08:37 UTC,,,,,,,,,J1772 NEMA520,US,,,,Public,,public,,
ELEC,KCPL,11551 Ash St,"PARK PLACE #1A; Located in the Park Place garage. First level, north end near the entrance on 115th Place.
PARK PLACE #1B; Located in the Park Place garage. First level, north end near the entrance on 115th Place.",Leawood,KS,66211,,888-758-4389,E,,Public,24 hours daily,,,,,2,2,,,ChargePoint Network,http://www.chargepoint.com/,200-9,38.917293,-94.64815,2018-11-19,41003,2018-11-19 10:08:37 UTC,,,,,,,,,J1772 NEMA520,US,,,,Public,,public,,
ELEC,CONSUMERSENERGY,4000 Clay Ave,GRA #1; -,Grand Rapids,MI,49548,,888-758-4389,E,,Public,24 hours daily,,,,,1,1,,,ChargePoint Network,http://www.chargepoint.com/,GPS,42.8904228,-85.677948,2018-11-19,41013,2018-11-19 10:08:37 UTC,,,,,,,,,J1772 NEMA520,US,,,,Public,,public,,
ELEC,HOLLAND BPW,93 EAST 7th St,93 EAST 7TH ST,Holland,MI,49423,,888-758-4389,E,,Public,24 hours daily,,,,,1,1,,,ChargePoint Network,http://www.chargepoint.com/,GPS,42.7914848,-86.103302,2018-11-19,41014,2018-11-19 10:08:37 UTC,,,,,,,,,J1772 NEMA520,US,,,,Public,,public,,
ELEC,CityFlats Hotel,61 E 7th St,,Holland,MI,49423,,616-796-2100,E,,Public,24 hours daily,,,,,1,1,,,,,GPS,42.79177475,-86.10496521,2018-06-05,41015,2018-06-05 19:29:00 UTC,T,,,2011-09-15,,,,,J1772 NEMA520,US,,,,Public,,public,,
ELEC,HOLLAND BPW,648 EAST 24th St,648 EAST 24TH,Holland,MI,49423,,888-758-4389,E,,Public,24 hours daily,,,,,1,1,,,ChargePoint Network,http://www.chargepoint.com/,GPS,42.774807,-86.0800323,2018-11-19,41016,2018-11-19 10:08:37 UTC,,,,,,,,,J1772 NEMA520,US,,,,Public,,public,,
ELEC,HOLLAND BPW,3010 BEELINE rd,3010 BEELINE RD,Holland,MI,49424,,888-758-4389,E,,Public,24 hours daily,,,,,1,1,,,ChargePoint Network,http://www.chargepoint.com/,GPS,42.823082,-86.094101,2018-11-19,41017,2018-11-19 10:08:37 UTC,,,,,,,,,J1772 NEMA520,US,,,,Public,,public,,
ELEC,HOLLAND BPW,265 EAST 8th St,265 EAST 8TH ST,Holland,MI,49423,,888-758-4389,E,,Public,24 hours daily,,,,,1,1,,,ChargePoint Network,http://www.chargepoint.com/,GPS,42.7906914,-86.0955048,2018-11-19,41018,2018-11-19 10:08:37 UTC,,,,,,,,,J1772 NEMA520,US,,,,Public,,public,,
ELEC,HOLLAND BPW,175 WEST 24th St,175 WEST 24TH,Holland,MI,49423,,888-758-4389,E,,Public,24 hours daily,,,,,1,1,,,ChargePoint Network,http://www.chargepoint.com/,GPS,42.7760849,-86.1154175,2018-11-19,41019,2018-11-19 10:08:37 UTC,,,,,,,,,J1772 NEMA520,US,,,,Public,,public,,
ELEC,HOLLAND BPW,477 WEST 40th St,477 WEST 40TH,Holland,MI,49423,,888-758-4389,E,,Public,24 hours daily,,,,,1,1,,,ChargePoint Network,http://www.chargepoint.com/,GPS,42.7614975,-86.1281586,2018-11-19,41022,2018-11-19 10:08:37 UTC,,,,,,,,,J1772 NEMA520,US,,,,Public,,public,,
ELEC,HOLLAND BPW,55 WEST 12th St,55 WEST 12TH ST,Holland,MI,49423,,888-758-4389,E,,Public,24 hours daily,,,,,1,1,,,ChargePoint Network,http://www.chargepoint.com/,GPS,42.7867775,-86.109993,2018-11-19,41023,2018-11-19 10:08:37 UTC,,,,,,,,,J1772 NEMA520,US,,,,Public,,public,,
ELEC,Hayworth Inn & Conference Center,225 College Ave,At 10th Street,Holland,MI,49423,,616-395-7200,E,,Public,24 hours daily,,,,,1,1,,,,,GPS,42.78875732,-86.10360718,2018-06-05,41025,2018-06-05 19:29:00 UTC,T,,,2011-09-15,,,,,J1772 NEMA520,US,,,,Public,,public,,
ELEC,HOLLAND BPW,176 EAST 10TH st,176 EAST 10TH,Holland,MI,49423,,888-758-4389,E,,Public,24 hours daily,,,,,1,1,,,ChargePoint Network,http://www.chargepoint.com/,GPS,42.7882347,-86.0992584,2018-11-19,41026,2018-11-19 10:08:37 UTC,,,,,,,,,J1772 NEMA520,US,,,,Public,,public,,
ELEC,HOLLAND BPW,629 Southpointe Ridge Rd,629 SOUTHPOINT,Holland,MI,49423,,888-758-4389,E,,Public,24 hours daily,,,,,1,1,,,ChargePoint Network,http://www.chargepoint.com/,GPS,42.753624,-86.0798569,2018-11-19,41027,2018-11-19 10:08:37 UTC,,,,,,,,,J1772 NEMA520,US,,,,Public,,public,,
ELEC,BAKER COLLEGE,1903  Quarterline Rd,"STATION ONE
STATION TWO",Muskegon,MI,49442,,888-758-4389,E,,Public,24 hours daily,,,,,2,2,,,ChargePoint Network,http://www.chargepoint.com/,200-9,43.242776,-86.195922,2018-11-19,41030,2018-11-19 10:08:37 UTC,,,,,,,,,J1772 NEMA520,US,,,,Public,,public,,
ELEC,CITYOF MUSKEGON,Beach Street Rd,PERE PARK #1,Muskegon,MI,49441,,888-758-4389,E,,Public,24 hours daily,,,,,1,1,,,ChargePoint Network,http://www.chargepoint.com/,GPS,43.2242851,-86.3363495,2018-11-19,41032,2018-11-19 10:08:37 UTC,,,,,,,,,J1772 NEMA520,US,,,,Public,,public,,
ELEC,CONSUMERSENERGY,1945 W Parnall Rd,PAR #2; -,Jackson,MI,49202,,888-758-4389,E,,Public,24 hours daily,,,,,1,1,,,ChargePoint Network,http://www.chargepoint.com/,GPS,42.2901764,-84.4212646,2018-11-19,41039,2018-11-19 10:08:37 UTC,,,,,,,,,J1772 NEMA520,US,,,,Public,,public,,
ELEC,CCSF SFMTA,2501 23rd Street,"SFGENERAL HSPT2; Public Parking Level 3
SFGENERAL HSPTL; Public Parking Level 3",San Francisco,CA,94110,,888-758-4389,E,,Public,24 hours daily,,,,,2,2,,,ChargePoint Network,http://www.chargepoint.com/,200-9,37.754333,-122.404839,2018-11-19,41206,2018-11-19 10:08:37 UTC,,,,,,,,,J1772 NEMA520,US,,,,Public,,public,,
ELEC,U-GO-STATIONS,185 30th St,AVALON 1; At corner of Dune and 30th St at Police Station,Avalon,NJ,08202,,888-758-4389,E,,Public,24 hours daily,,,,,1,1,,,ChargePoint Network,http://www.chargepoint.com/,GPS,39.0959587,-74.7231827,2018-11-19,41236,2018-11-19 10:08:37 UTC,,,,,,,,,J1772 NEMA520,US,,,,Public,,public,,
ELEC,BEAM CHARGING,1510 Lexington Ave,1510 LEX GARAGE; Unit located on level C in section A outside of elevator,Manhattan,NY,10029,,888-758-4389,E,,Public,24 hours daily,,,,,1,1,,,ChargePoint Network,http://www.chargepoint.com/,GPS,40.7869415,-73.9505157,2018-11-19,41247,2018-11-19 10:08:37 UTC,,,,,,,,,J1772 NEMA520,US,,,,Public,,public,,
ELEC,BEAM CHARGING,919 3rd Ave,919 THIRD AVE; On ramp to second floor of GMC garage,Manhattan,NY,10022,,888-758-4389,E,,Public,24 hours daily,,,,,1,1,,,ChargePoint Network,http://www.chargepoint.com/,GPS,40.7587318,-73.9677887,2018-11-19,41250,2018-11-19 10:08:37 UTC,,,,,,,,,J1772 NEMA520,US,,,,Public,,public,,
ELEC,BEAM CHARGING,157 W 83rd St,157 W 83RD ST; Unit located on back wall of garage as you pull in,Manhattan,NY,10024,,888-758-4389,E,,Public,24 hours daily,,,,,1,1,,,ChargePoint Network,http://www.chargepoint.com/,GPS,40.7855225,-73.9753265,2018-11-19,41251,2018-11-19 10:08:37 UTC,,,,,,,,,J1772 NEMA520,US,,,,Public,,public,,
ELEC,BEAM CHARGING,38 W 46th St,38 W 46 ST GRG; Unit located on ground floor behind the managers office,New York,NY,10036,,888-758-4389,E,,Public,24 hours daily,,,,,1,1,,,ChargePoint Network,http://www.chargepoint.com/,GPS,40.7566757,-73.9808273,2018-11-19,41255,2018-11-19 10:08:37 UTC,,,,,,,,,J1772 NEMA520,US,,,,Public,,public,,
ELEC,BEAM CHARGING,315 E 40th St,315 E 40TH ST; Unit behind managers office section C on wall facing 40th St,New York,NY,10017,,888-758-4389,E,,Public,24 hours daily,,,,,1,1,,,ChargePoint Network,http://www.chargepoint.com/,GPS,40.7481346,-73.9721222,2018-11-19,41256,2018-11-19 10:08:37 UTC,,,,,,,,,J1772 NEMA520,US,,,,Public,,public,,
ELEC,VILLAGE WARWICK,5 South St,SOUTH ST LOT; Located in the South Street Parking lot,Warwick,NY,10990,,888-758-4389,E,,Public,24 hours daily,,,,,1,1,,,ChargePoint Network,http://www.chargepoint.com/,GPS,41.2571716,-74.3586731,2018-11-19,41261,2018-11-19 10:08:37 UTC,,,,,,,,,J1772 NEMA520,US,,,,Public,,public,,
ELEC,PIE AE,710 Trinity St,"PUB-STDAVIDSST1; By main entrance,  parking garage on Trinity St
PUB-STDAVIDSST2; By main entrance, parking garage on Trinity St",Austin,TX,78701,,888-758-4389,E,,Public,24 hours daily,,,,,2,2,,,ChargePoint Network,http://www.chargepoint.com/,200-9,30.268836,-97.739133,2018-11-19,41272,2018-11-19 10:08:37 UTC,,,,,,,,,J1772 NEMA520,US,,,,Public,,public,,
ELEC,PIE AE,3401 S I H 35,PUBWYNDHAMGARD1; Right side of main lobby next to sidewalk - for Wyndham guests,Austin,TX,78741,,888-758-4389,E,,Public,24 hours daily,,,,,1,1,,,ChargePoint Network,http://www.chargepoint.com/,GPS,30.2228031,-97.7461014,2018-11-19,41273,2018-11-19 10:08:37 UTC,,,,,,,,,J1772 NEMA520,US,,,,Public,,public,,
ELEC,GEORGETOWN,1003 N Austin Ave,RECCENTER STAT1; in rear parking lot closest to former football field ,Georgetown,TX,78626,,888-758-4389,E,,Public,24 hours daily,,,,,1,1,,,ChargePoint Network,http://www.chargepoint.com/,200-9,30.6504604,-97.6737471,2018-11-19,41276,2018-11-19 10:08:37 UTC,,,,,,,,,J1772 NEMA520,US,,,,Public,,public,,
ELEC,GEORGETOWN,402 W 8th St,"LIBRARY STAT 1; S Rock Stree side of Library, closest space within Library",Georgetown,TX,78626,,888-758-4389,E,,Public,24 hours daily,,,,,1,1,,,ChargePoint Network,http://www.chargepoint.com/,GPS,30.6365776,-97.6795807,2018-11-19,41277,2018-11-19 10:08:37 UTC,,,,,,,,,J1772 NEMA520,US,,,,Public,,public,,
ELEC,WOLF TRAP,1551 Trap Rd,"WOLF TRAP 1; Parking on right side of drive approaching Filene Center.
WOLF TRAP 2; Parking on right side of drive approaching Filene Center.",Vienna,VA,22182,,888-758-4389,E,,Public,24 hours daily,,,,,2,2,,,ChargePoint Network,http://www.chargepoint.com/,200-8,38.93844,-77.266897,2018-11-19,41299,2018-11-19 10:08:37 UTC,,,,,,,,,J1772 NEMA520,US,,,,Public,,public,,
ELEC,CITY OF EDMONDS,121 5th Ave N,CITY HALL #1; Enter from the alley running parallel between 4th @ 5th Av,Edmonds,WA,98020,,888-758-4389,E,,Public,24 hours daily,,,,,1,1,,,ChargePoint Network,http://www.chargepoint.com/,GPS,47.8111687,-122.3773117,2018-11-19,41300,2018-11-19 10:08:37 UTC,,,,,,,,,J1772 NEMA520,US,,,,Public,,public,,
ELEC,CITY OF EDMONDS,600 3rd Ave. S,CITY PARK #1; Enter park at 3rd S & Erben Dr. ,Edmonds,WA,98020,,888-758-4389,E,,Public,24 hours daily,,,,,1,1,,,ChargePoint Network,http://www.chargepoint.com/,GPS,47.8057442,-122.3825989,2018-11-19,41301,2018-11-19 10:08:37 UTC,,,,,,,,,J1772 NEMA520,US,,,,Public,,public,,
ELEC,CITY OF EDMONDS,250 5th Ave N,"PUBLIC SAFETY 1; Located in SW corner of Public Safety parking lot 
PUBLIC SAFETY 2; Located in SW corner of Public Safety parking lot",Edmonds,WA,98020,,888-758-4389,E,,Public,24 hours daily,,,,,2,2,,,ChargePoint Network,http://www.chargepoint.com/,200-9,47.812011,-122.375477,2018-11-19,41302,2018-11-19 10:08:37 UTC,,,,,,,,,J1772 NEMA520,US,,,,Public,,public,,
ELEC,CITY OF ANAHEIM,1041 N Pacificenter Dr,"CANYON MLINK 01; Charging stations at south end near tracks.
CANYON MLINK 02; Charging stations at south end near tracks.
CANYON MLINK 03; Charging stations at the south end near tracks.",Anaheim,CA,92806,,888-758-4389,E,,Public,24 hours daily,,,,,1,3,,,ChargePoint Network,http://www.chargepoint.com/,200-9,33.853153,-117.840341,2018-11-19,41312,2018-11-19 10:08:37 UTC,,,,,,,,,J1772 NEMA520,US,,,,Public,,public,,
ELEC,ROSEVILLE,1125 Galleria Blvd,GALLERIA GARAGE; Ground level parking structure between JC PENNY & Macy's,Roseville,CA,95678,,888-758-4389,E,,Public,24 hours daily,,,,,1,1,,,ChargePoint Network,http://www.chargepoint.com/,200-8,38.7737617,-121.2675705,2018-11-19,41323,2018-11-19 10:08:37 UTC,,,,,,,,,J1772 NEMA520,US,,,,Public,,public,,
ELEC,PALO ALTO CA,250 Hamilton Ave,"HAMILTON #1; City Hall Parking Garage
HAMILTON #2; -",Palo Alto,CA,94301,,888-758-4389,E,,Public,24 hours daily,,,,,1,3,,,ChargePoint Network,http://www.chargepoint.com/,200-9,37.444402,-122.160043,2018-11-19,41330,2018-11-19 10:08:37 UTC,,,,,,,,,J1772 NEMA520,US,,,,Public,,public,,
ELEC,CCSF SFMTA,355 McAllister St,"CIVIC CENTER 2; Public Parking Level 1 & 2, Parking Rates Apply
CIVIC CENTER 6; Public Parking Level 1&2, Parking Rates Apply ",San Francisco,CA,94102,,888-758-4389,E,,Public,24 hours daily,,,,,2,2,,,ChargePoint Network,http://www.chargepoint.com/,200-8,37.780232,-122.417494,2018-11-19,41338,2018-11-19 10:08:37 UTC,,,,,,,,,J1772 NEMA520,US,,,,Public,,public,,
ELEC,CCSF SFMTA,1610 Geary Blvd,JAPAN CENTER; Public Parking Level 1 - Parking Rates Apply,San Francisco,CA,94115,,888-758-4389,E,,Public,24 hours daily,,,,,1,1,,,ChargePoint Network,http://www.chargepoint.com/,GPS,37.7849121,-122.4302368,2018-11-19,41340,2018-11-19 10:08:37 UTC,,,,,,,,,J1772 NEMA520,US,,,,Public,,public,,
ELEC,CCSF SFMTA,1399 Bush St,POLK   BUSH; Public Parking Level 1,San Francisco,CA,94109,,888-758-4389,E,,Public,24 hours daily,,,,,1,1,,,ChargePoint Network,http://www.chargepoint.com/,GPS,37.7886429,-122.4200287,2018-11-19,41341,2018-11-19 10:08:37 UTC,,,,,,,,,J1772 NEMA520,US,,,,Public,,public,,
ELEC,Mountain View Civic Center Garage,500 Castro St,Mercy St and Castro St,Mountain View,CA,94041,,650-903-6301,E,,Public,Garage business hours,,,,,2,2,,1 LP Inductive,,,GPS,37.390383,-122.0827,2018-05-03,41347,2018-05-03 14:44:18 UTC,LG,,,2008-12-30,,,,,J1772 NEMA520,US,,,,Public,,public,,
ELEC,PUBLIC STATIONS,5530 Lacy Rd,"FITCH LIBRARY; At North End of Library Parking Lot
FITCHBURG COMM; ADA Parking Stall at Fitchburg Community Center",Fitchburg,WI,53711,,888-758-4389,E,,Public,24 hours daily,,,,,1,2,,,ChargePoint Network,http://www.chargepoint.com/,200-8,43.001438,-89.42434,2018-11-19,41520,2018-11-19 10:08:37 UTC,,,,,,,,,J1772 NEMA520,US,,,,Public,,public,,
ELEC,PUBLIC STATIONS,250 E Mifflin St,"CAP NORTH ADA; ADA Stall in Capitol Square North Parking Ramp
CAPITOL GEN PUB; General Public space in Capitol North Parking Ramp",Madison,WI,53703,,888-758-4389,E,,Public,24 hours daily,,,,,2,2,,,ChargePoint Network,http://www.chargepoint.com/,200-8,43.077767,-89.38254,2018-11-19,41521,2018-11-19 10:08:37 UTC,,,,,,,,,J1772 NEMA520,US,,,,Public,,public,,
ELEC,PUBLIC STATIONS,1701 Monroe Street,"MONROE LIB ADA; Monroe Street Library, ADA Parking Stall",Madison,WI,53711,,888-758-4389,E,,Public,24 hours daily,,,,,1,1,,,ChargePoint Network,http://www.chargepoint.com/,GPS,43.0660286,-89.4151993,2018-11-19,41522,2018-11-19 10:08:37 UTC,,,,,,,,,J1772 NEMA520,US,,,,Public,,public,,
ELEC,PUBLIC STATIONS,415 N Lake St,"LAKE ST GEN PUB
LAKE STREET ADA; ADA stall in Lake Street ramp",Madison,WI,53715,,888-758-4389,E,,Public,24 hours daily,,,,,2,2,,,ChargePoint Network,http://www.chargepoint.com/,200-9,43.074082,-89.396955,2018-11-19,41524,2018-11-19 10:08:37 UTC,,,,,,,,,J1772 NEMA520,US,,,,Public,,public,,
ELEC,PUBLIC STATIONS,1339 Vilas Park Dr,"ZOO ADA; Zoo Lot near Henry Vilas Beach on Lake Wingra
ZOO GENERAL PUB; Zoo Parking Lot Near Vilas Beach",Madison,WI,53715,,888-758-4389,E,,Public,24 hours daily,,,,,2,2,,,ChargePoint Network,http://www.chargepoint.com/,200-8,43.06291,-89.407881,2018-11-19,41525,2018-11-19 10:08:37 UTC,,,,,,,,,J1772 NEMA520,US,,,,Public,,public,,
ELEC,Wilkerson Nature Preserve Park,11408 Raven Ridge Rd,,Raleigh,NC,27614,,919-996-3030,E,,Public,24 hours daily,,,,,1,2,,,,,200-9,35.92353,-78.599883,2017-11-02,41553,2018-03-06 01:46:32 UTC,LG,,,2011-05-25,,,,,J1772 NEMA520,US,,,,Public,,public,,
ELEC,METRO NASHVILLE,2034 Hobson Pike,NFD STATION 35; Located at NFD Station 35,Metropolitan Government,TN,37013,,888-758-4389,E,,Public,24 hours daily,,,,,1,1,,,ChargePoint Network,http://www.chargepoint.com/,GPS,36.0521507,-86.5991898,2018-11-19,41763,2018-11-19 10:08:37 UTC,,,,,,,,,J1772 NEMA520,US,,,,Public,,public,,
ELEC,PIE AE,12138 N Lamar Blvd,"WALNUTCREEKPRK1; Front parking lot
WALNUTCREEKPRK2; Front parking lot",Austin,TX,78753,,888-758-4389,E,,Public,24 hours daily,,,,,2,2,,,ChargePoint Network,http://www.chargepoint.com/,200-9,30.399901,-97.683616,2018-11-19,41769,2018-11-19 10:08:37 UTC,,,,,,,,,J1772 NEMA520,US,,,,Public,,public,,
ELEC,ISSAQUAH,970 NE High St,"ZHOME #1; ZHome Project
ZHOME #2; ZHome Project",Issaquah,WA,98029,,888-758-4389,E,,Public,24 hours daily,,,,,2,2,,,ChargePoint Network,http://www.chargepoint.com/,200-9,47.544578,-122.016825,2018-11-19,41774,2018-11-19 10:08:37 UTC,,,,,,,,,J1772 NEMA520,US,,,,Public,,public,,
ELEC,TPU,3628 S 35th St,"TPU #7; -
TPU HQ DUAL #2
TPU-EVSE #7; Union &amp; S 35th St",Tacoma,WA,98409,,888-758-4389,E,,Public,24 hours daily,,,,,1,5,,,ChargePoint Network,http://www.chargepoint.com/,200-9,47.227983,-122.4851,2018-11-19,41780,2018-11-19 10:08:37 UTC,,,,,,,,,J1772 NEMA520,US,,,,Public,,public,,
ELEC,BMW GROUP,675 El Camino Real,"WESTIN PA #1; Public station but parking fees apply - station located in parking garage on level G2
WESTIN PA #2; Public station but parking fees apply - station located in parking garage on level g2
WESTIN PA #4; Public station but parking fees apply - station located in parking garage level G2",Palo Alto,CA,94301,,888-758-4389,E,,Public,24 hours daily,,,,,1,3,,,ChargePoint Network,http://www.chargepoint.com/,200-9,37.440413,-122.163198,2018-11-19,41795,2018-11-19 10:08:37 UTC,,,,,,,,,J1772 NEMA520,US,,,,Public,,public,,
ELEC,STETSON UNIV.,157 E Minnesota Ave,GRIFFITH HALL 1; Main Driveway near Griffith Hall entrance on roadway,DeLand,FL,32720,,888-758-4389,E,,Public,24 hours daily,,,,,1,1,,,ChargePoint Network,http://www.chargepoint.com/,GPS,29.0373783,-81.3026657,2018-11-19,41798,2018-11-19 10:08:37 UTC,,,,,,,,,J1772 NEMA520,US,,,,Public,,public,,
ELEC,STETSON UNIV.,230 E Michigan Ave,RINKER ELC 1; Parking Lot next to Building. Fuel Efficient and LEV only,DeLand,FL,32724,,888-758-4389,E,,Public,24 hours daily,,,,,1,1,,,ChargePoint Network,http://www.chargepoint.com/,GPS,29.0333405,-81.3006363,2018-11-19,41799,2018-11-19 10:08:37 UTC,,,,,,,,,J1772 NEMA520,US,,,,Public,,public,,
ELEC,AUTO CLUB GROUP,1000 Aaa Dr,HEATHROW 001,Lake Mary,FL,32746,,888-758-4389,E,,Public,24 hours daily,,,,,1,1,,,ChargePoint Network,http://www.chargepoint.com/,GPS,28.769527,-81.362269,2018-11-19,41801,2018-11-19 10:08:37 UTC,,,,,,,,,J1772 NEMA520,US,,,,Public,,public,,
ELEC,"LONGWOOD, FL",599 Longdale Ave,EVSE UNIT 01; Candyland Park near tennis courts.,Longwood,FL,32750,,888-758-4389,E,,Public,24 hours daily,,,,,1,1,,,ChargePoint Network,http://www.chargepoint.com/,GPS,28.7095604,-81.3361282,2018-11-19,41802,2018-11-19 10:08:37 UTC,,,,,,,,,J1772 NEMA520,US,,,,Public,,public,,
ELEC,"LONGWOOD, FL",W Warren Ave,EVSE UNIT 02; Ritter Park. Parking area next to Fire Station 15,Longwood,FL,32750,,888-758-4389,E,,Public,24 hours daily,,,,,1,1,,,ChargePoint Network,http://www.chargepoint.com/,GPS,28.7003021,-81.3510513,2018-11-19,41803,2018-11-19 10:08:37 UTC,,,,,,,,,J1772 NEMA520,US,,,,Public,,public,,
ELEC,GAI BUILDING,618 E South St,"EVSE UNIT 01; Enter Parking Garage off South Street, left side of garage
EVSE UNIT 02; Enter Parking Garage off South Street, left side of garage",Orlando,FL,32801,,888-758-4389,E,,Public,24 hours daily,,,,,2,2,,,ChargePoint Network,http://www.chargepoint.com/,200-9,28.538047,-81.368809,2018-11-19,41806,2018-11-19 10:08:37 UTC,,,,,,,,,J1772 NEMA520,US,,,,Public,,public,,
ELEC,CITY OF TAMPA,901 E Twiggs St,"TWIGGS GARAGE 1; Twiggs Street Garage, Level 1, near Twiggs St exit. Parking Rates Appl
TWIGGS ST 01; Level 1, near Twiggs St exit. Parking Rates Apply ",Tampa,FL,33602,,888-758-4389,E,,Public,24 hours daily,,,,,1,3,,,ChargePoint Network,http://www.chargepoint.com/,200-9,27.951077,-82.452564,2018-11-19,41814,2018-11-19 10:08:37 UTC,,,,,,,,,J1772 NEMA520,US,,,,Public,,public,,
ELEC,CITY OF TAMPA,1500 E 5th Ave,CENTRO YBOR 01; Centro Ybor Garage. Opposite 16th St booth. Park Rates Apply,Tampa,FL,33605,,888-758-4389,E,,Public,24 hours daily,,,,,1,1,,,ChargePoint Network,http://www.chargepoint.com/,GPS,27.9591866,-82.4418488,2018-11-19,41816,2018-11-19 10:08:37 UTC,,,,,,,,,J1772 NEMA520,US,,,,Public,,public,,
ELEC,CITY OF TAMPA,420 E Jackson St,CITY HALL 01; Jackson Street Lot. Between Space 4 & 5. Parking Fee Applies,Tampa,FL,33602,,888-758-4389,E,,Public,24 hours daily,,,,,1,1,,,ChargePoint Network,http://www.chargepoint.com/,GPS,27.9476414,-82.4567719,2018-11-19,41817,2018-11-19 10:08:37 UTC,,,,,,,,,J1772 NEMA520,US,,,,Public,,public,,
ELEC,CITY OF TAMPA,200 S Ashley Dr,"CONV. CTR 01; Main Level, Across from Column B4. Parking Fees Apply.",Tampa,FL,33602,,888-758-4389,E,,Public,24 hours daily,,,,,1,1,,,ChargePoint Network,http://www.chargepoint.com/,GPS,27.9426212,-82.456871,2018-11-19,41818,2018-11-19 10:08:37 UTC,,,,,,,,,J1772 NEMA520,US,,,,Public,,public,,
ELEC,CITY OF TAMPA,107 N Franklin St,"FORT BROOKE 01; 3rd Floor, near sky bridge. Parking Rates Apply
FORT BROOKE 2; 3rd Floor, near sky bridge. Parking Rates Apply",Tampa,FL,33602,,888-758-4389,E,,Public,24 hours daily,,,,,2,2,,,ChargePoint Network,http://www.chargepoint.com/,200-9,27.94582,-82.456853,2018-11-19,41819,2018-11-19 10:08:37 UTC,,,,,,,,,J1772 NEMA520,US,,,,Public,,public,,
ELEC,CITY OF TAMPA,802 N Ashley Dr,"POE GARAGE 01; Level 2, near elevator, left side of ramp. Parking Fee Apply
POE GARAGE 02; Level 2, near elevator, left side of ramp. Parking Fee Apply",Tampa,FL,33602,,888-758-4389,E,,Public,24 hours daily,,,,,2,2,,,ChargePoint Network,http://www.chargepoint.com/,200-9,27.949606,-82.462112,2018-11-19,41820,2018-11-19 10:08:37 UTC,,,,,,,,,J1772 NEMA520,US,,,,Public,,public,,
ELEC,MUSKEGON COUNTY,376 E Apple Ave,COMMUNITY MH #1; -,Muskegon,MI,49442,,888-758-4389,E,,Public,24 hours daily,,,,,1,1,,,ChargePoint Network,http://www.chargepoint.com/,GPS,43.2345356,-86.2351696,2018-11-19,41834,2018-11-19 10:08:37 UTC,,,,,,,,,J1772 NEMA520,US,,,,Public,,public,,
ELEC,CITY OF STCLAIR,201 N Riverside Ave,PALMER PARK #1,St Clair,MI,48079,,888-758-4389,E,,Public,24 hours daily,,,,,1,1,,,ChargePoint Network,http://www.chargepoint.com/,GPS,42.8257179,-82.4850616,2018-11-19,41837,2018-11-19 10:08:37 UTC,,,,,,,,,J1772 NEMA520,US,,,,Public,,public,,
ELEC,CITY OF STCLAIR,331 Clinton,ROTARY PARK #1,St Clair,MI,48079,,888-758-4389,E,,Public,24 hours daily,,,,,1,1,,,ChargePoint Network,http://www.chargepoint.com/,GPS,42.8209915,-82.4888916,2018-11-19,41838,2018-11-19 10:08:37 UTC,,,,,,,,,J1772 NEMA520,US,,,,Public,,public,,
ELEC,WALSH COLLEGE T,3838 Livernois Rd,"WALSH OF TROY#1
WALSH OF TROY#2
WALSH OF TROY#3",Troy,MI,48083,,888-758-4389,E,,Public,24 hours daily,,,,,3,3,,,ChargePoint Network,http://www.chargepoint.com/,200-9,42.573886,-83.147041,2018-11-19,41839,2018-11-19 10:08:37 UTC,,,,,,,,,J1772 NEMA520,US,,,,Public,,public,,
ELEC,ENTERGY,N State St,MEDICALCENTER 1;  Located in the transportationshopping area.,Jackson,MS,39216,,888-758-4389,E,,Public,24 hours daily,,,,,1,1,,,ChargePoint Network,http://www.chargepoint.com/,GPS,32.3287239,-90.1755524,2018-11-19,41846,2018-11-19 10:08:37 UTC,,,,,,,,,J1772 NEMA520,US,,,,Public,,public,,
ELEC,CLT AIRPORT,5601 Wilkinson Blvd,"BUS VALET 01
BUS VALET 02; Buisness Valet 1 lower level
BUS. VALET 01; Complimentary when parking in Business Valet
BUS. VALET 02; Complimentary when Parking in Business Valet
BUS. VALET 03; Business Valet Parking Area. Please see attendant for access. Parking Fees Apply
BUS. VALET 04; Business Valet Parking Area. Please see Attendant for Access. Parking Fees Apply",Charlotte,NC,28208,,888-758-4389,E,,Public,24 hours daily,,,,,2,10,,,ChargePoint Network,http://www.chargepoint.com/,200-9,35.232643,-80.933936,2018-11-19,41847,2018-11-19 10:08:37 UTC,,,,,,,,,J1772 NEMA520,US,,,,Public,,public,,
ELEC,EDISONPARKFAST,160 Livingston St,LOT#93; Mounted to parking booth in Edison ParkFast lot,Brooklyn,NY,11201,,888-758-4389,E,,Public,24 hours daily,,,,,1,1,,,ChargePoint Network,http://www.chargepoint.com/,GPS,40.6901703,-73.9878998,2018-11-19,41853,2018-11-19 10:08:37 UTC,,,,,,,,,J1772 NEMA520,US,,,,Public,,public,,
ELEC,EDISONPARKFAST,400 E 110th St,LOT#128; Edison ParkFast lot mounted to booth,Manhattan,NY,10029,,888-758-4389,E,,Public,24 hours daily,,,,,1,1,,,ChargePoint Network,http://www.chargepoint.com/,GPS,40.7919655,-73.937355,2018-11-19,41857,2018-11-19 10:08:37 UTC,,,,,,,,,J1772 NEMA520,US,,,,Public,,public,,
ELEC,EDISONPARKFAST,3976 10th Ave,LOT#134,Manhattan,NY,10034,,888-758-4389,E,,Public,24 hours daily,,,,,1,1,,,ChargePoint Network,http://www.chargepoint.com/,GPS,40.8680344,-73.9167023,2018-11-19,41858,2018-11-19 10:08:37 UTC,,,,,,,,,J1772 NEMA520,US,,,,Public,,public,,
ELEC,CITY BRADENTON,222 12th St W,OLD MAIN ST 1; Curbside in front of Westminster Courtyard Residences,Bradenton,FL,34205,,888-758-4389,E,,Public,24 hours daily,,,,,1,1,,,ChargePoint Network,http://www.chargepoint.com/,GPS,27.4977341,-82.573494,2018-11-19,42108,2018-11-19 10:08:37 UTC,,,,,,,,,J1772 NEMA520,US,,,,Public,,public,,
ELEC,CITY CLEARWATER,28 N Garden Ave,"GARDEN AVE 01; Garden Ave. Garage, Lvl 1: immed. on right, Park Fees Apply",Clearwater,FL,33756,,888-758-4389,E,,Public,24 hours daily,,,,,1,1,,,ChargePoint Network,http://www.chargepoint.com/,GPS,27.96661,-82.7989731,2018-11-19,42112,2018-11-19 10:08:37 UTC,,,,,,,,,J1772 NEMA520,US,,,,Public,,public,,
ELEC,LAKEWOOD RANCH,6220 University Pkwy,VISITOR CTR 01; Visitor Center to left of main entrance on side of building,Lakewood Ranch,FL,34240,,888-758-4389,E,,Public,24 hours daily,,,,,1,1,,,ChargePoint Network,http://www.chargepoint.com/,GPS,27.387085,-82.4406815,2018-11-19,42114,2018-11-19 10:08:37 UTC,,,,,,,,,J1772 NEMA520,US,,,,Public,,public,,
ELEC,SEACOAST BANK,18251 US Highway 441,"MOUNT DORA 01; Parking spaces to right of main entrance
